Pest Control Companies,street,city,state,postal_code,latitude,longitude
JP McHale Pest Management,286 Madison Ave #1300,New York,New York,10017,40.751693,-73.9803106
Home Paramount Pest Control,501 N Main St,Kernersville,North Carolina,27284,36.1267965,-80.0672954
Massey Services Pest Control,3609 W Main St,Leesburg,Florida,34748,28.8108696,-81.9221613
Massey Services Pest Control,2466 W State Rd 426,Oviedo,Florida,32765,28.6356545,-81.2370394
ABC Home & Commercial Services,8061 Marsh Rd,Clay Township,Michigan,48001,42.6656189,-82.5462226
Knox Pest Control,163 Jefferson Pkwy,Newnan,Georgia,30263,33.3985433,-84.7694224
Massey Services Pest Control,59 Skyline Dr #1300,Lake Mary,Florida,32746,28.7341081,-81.3700753
Nader's Pest Raiders,542347 US-1,Callahan,Florida,32011,30.5636413,-81.8301852
Rocky Mountain Home Improvement LLC,,,,,39.173692,-106.4448244
Massey Services Pest Control,4083 E County Rd 462,Wildwood,Florida,34785,28.8832719,-82.0359763
Massey Services Pest Control,2090 E Burleigh Blvd,Eustis,Florida,32726,28.8213489,-81.7067242
"Titanium Laboratories, Inc.",249 Satterthwaite Ave,Nutley,New Jersey,7110,40.8205852,-74.1504626
"Titanium Laboratories, Inc.",249 Satterthwaite Ave,Nutley,New Jersey,7110,40.8205852,-74.1504626
Mosquito Squad of Northcentral Wisconsin,W9630 WI-64,Antigo,Wisconsin,54409,45.1627273,-89.1311225
Massey Services Pest Control,606 Hoopfer Wy,Lady Lake,Florida,32159,28.9277815,-81.9385781
Massey Services Pest Control,3612 Parkway Blvd,Leesburg,Florida,34748,28.8099002,-81.9232957
Iron Curtain Exterminators Inc,,,,,40.4828244,-73.6705386
All-State Pest & Lawn,1220 Vermeer Cove,Cordova,Tennessee,38018,35.1587111,-89.7468295
Melrose Pest Control,849 N SR 21,Melrose,Florida,32666,29.711051,-82.044364
PermaTreat Pest & Termite Control,1255 Tappahannock Blvd #1,Tappahannock,Virginia,22560,37.9129185,-76.8610101
Southview Pest and Turf Management,827 Williams Ave,Crestview,Florida,32539,30.7467472,-86.54951
MosquitoNix Cape Fear,,,,,34.2069834,-77.8733794
The Eliminator Pest Control and Lawn Care,293 Hill St,Lyndonville,Vermont,5851,44.5325588,-71.9940762
Tomlinson Bomberger Pest Control,3055 Yellow Goose Rd,Lancaster,Pennsylvania,17601,40.0890518,-76.3905645
Bush Home Services,7363 W Fair Acres Pl,Homosassa,Florida,34448,28.7793199,-82.5562605
"MosquitoNix North Raleigh, Wake Forest, North Hills",,,,,35.8632885,-78.6305545
ABC Home & Commercial Services,1022 Mc Bride Ln,Corpus Christi,Texas,78407,27.805275,-97.461678
Solutions,100 Solutions Pkwy,Thomaston,Georgia,30286,32.9056719,-84.3020094
Entoguard Inc,194 Market St,Lewisburg,Pennsylvania,17837,40.9651843,-76.8836382
Massey Services Pest Control,1601 S US Hwy 17 92,Longwood,Florida,32750,28.6869396,-81.3298835
Entoguard Termite & Pest Control,151 N 5th St,Mifflinburg,Pennsylvania,17844,40.9181228,-77.0503598
Drake Lawn & Pest Control,601 Mason Ave,Daytona Beach,Florida,32117,29.2237766,-81.0368604
GAC Pest Control Arlington,38 Paul Revere Rd,Arlington,Massachusetts,2476,42.4231264,-71.1829874
Akin Pest Control & Lawn Care,809 E Central Ave,Comanche,Texas,76442,31.8978088,-98.5941887
Brody Brothers Pest Control in Owings Mills,11436 Cronhill Dr Unit 1,Owings Mills,Maryland,21117,39.4382611,-76.7741049
Massey Services Pest Control,12857 W Colonial Dr Suite 100,Winter Garden,Florida,34787,28.5517927,-81.572566
"MosquitoNix Kansas City, MO",,,,,38.238973,-94.3964315
Massey Services Pest Control,2860 Clarcona Rd,Apopka,Florida,32703,28.63861,-81.502432
"Southwest Va Pest Control, LLC",119 Smith Dr,Pearisburg,Virginia,24134,37.3114539,-80.7375728
"Cayce Exterminating Company, Inc",2229 Taylor Rd,Cayce,South Carolina,29033,33.9571966,-81.0714592
ProGuard Pest Services,194 Pine St,Appomattox,Virginia,24522,37.3528413,-78.8175361
Cummings Pest Solutions,5072 Gasport Rd,Gasport,New York,14067,43.1689814,-78.5747351
Patrick's Home Solutions,26610 N 150th Ave,Surprise,Arizona,85387,33.7251444,-112.3828827
Vegas Bees,612 Thrush Dr,Las Vegas,Nevada,89145,36.1648588,-115.2641792
Bush Pest Control,,Dunnellon,Florida,34432,29.0491426,-82.4609331
Mike's Termite & Pest Control,4675 LA-1,Raceland,Louisiana,70394,29.7009187,-90.5604763
"Aiken Pest Control, Inc.",2739 Wagener Rd,Aiken,South Carolina,29801,33.5496142,-81.6572082
Northeast Exterminating LLC,326 MS-12,Starkville,Mississippi,39759,33.4542345,-88.825898
Spectrum Pest Control,247 W Water St,Saxonburg,Pennsylvania,16056,40.7539792,-79.8134247
Johnson Pest Control,,,,,41.430741,-87.6200585
Adams Exterminators Inc,402 Park Ave N,Tifton,Georgia,31794,31.4574026,-83.5116952
Schendel Pest Control,625 Lincoln Way,Marshalltown,Iowa,50158,42.0424806,-92.9256678
Anchor Pest Services,136 Pleasant St,Bristol,New Hampshire,3222,43.5905098,-71.7404391
Hill's Exterminators Inc,9503 Hungarytown Rd,Crewe,Virginia,23930,37.073274,-78.1610861
"D & E Pest Solutions, LLC",,,,,46.423669,-129.9427086
EntoGuard Termite & Pest Control,601 Lenig Rd,Selinsgrove,Pennsylvania,17870,40.7342274,-76.915882
Bug Man Exterminating,,Pulaski,Virginia,24301,37.046035,-80.77849
CP Bat Mitigation,7601 S Audie Ave,Sioux Falls,South Dakota,57108,43.4755168,-96.7328278
Graves Pest Control,194 Vail Dr,Chico,California,95973,39.7680652,-121.8689627
Baron Services,5025 Lakewood Rd,Fort Mohave,Arizona,86426,35.0103252,-114.6002195
Chiltons Pest Control and Termite Springfield,1116 W Highland St,Springfield,Missouri,65807,37.1439127,-93.307203
Pure Solutions Upper Valley,,,,,43.7730685,-72.0313224
Cape Cod Tick & Mosquito,2619 State Hwy,Wellfleet,Massachusetts,2667,41.9355885,-70.0215164
Ehrlich Pest Control,705 Gompers Ave Suite 210,Indiana,Pennsylvania,15701,40.6223655,-79.1536133
Eagle Eye Pest Control,3128 Ivywood Cir,Howell,Michigan,48855,42.6450762,-83.9309355
Natural State Pest Control,223 E Monroe Ave,Lowell,Arkansas,72745,36.2535945,-94.1327682
Protect Pest Services,111 Daggett Dr,Raymond,Maine,4071,43.916884,-70.482608
"Harris Pest Control, Inc.",409 Martin Luther King Jr Ave,Kingstree,South Carolina,29556,33.6617522,-79.8204913
TruServ Pest Solutions,,,,,34.7165075,-83.487831
Apex Pest Solutions,629 Ethan Allen Hwy,Milton,Vermont,5468,44.688319,-73.1104729
Security Pest Control Inc,803 Main St,Roanoke,Alabama,36274,33.1511478,-85.3719736
Eco Systems Pest Control Inc. - A Division of Modern Pest Services,106 Longwater Dr Ste 111,Norwell,Massachusetts,2061,42.1574884,-70.8801935
Lake Norman Pest Control,552 Williamson Rd,Mooresville,North Carolina,28117,35.5711033,-80.8687796
Best in Pests Wildlife Solutions,,,,,41.5780722,-81.8614775
Insight Pest Solutions NY LLC,2 Townline Cir,Rochester,New York,14623,43.0959448,-77.6287268
Safe Solutions Plus Pest & Termite,934 Main St W,Rainsville,Alabama,35986,34.5030965,-85.8594592
"Guardian Termite & Pest Control, Inc.",25910 Point Lookout Rd,Leonardtown,Maryland,20650,38.3034959,-76.653567
Mosquito Squad of North Shore,461 Boston St,Topsfield,Massachusetts,1983,42.6622771,-70.9295182
Shirley Pest & Property Services,,,,,42.928576,-76.1671289
American Services Inc,10323 E 50th St,Tulsa,Oklahoma,74146,36.0921822,-95.8603425
"Home Guard Termite, Pest, and Home Services",6321 Oklahoma Rd,Sykesville,Maryland,21784,39.4005684,-76.929983
Statesboro Pest Control,5218 Canady Ct,Statesboro,Georgia,30461,32.402613,-81.712425
All Solutions Pest Control,,,,,38.878718,-90.9695925
Security Pest Control & Termite Company,,,,,42.7134915,-70.982584
Fox Pest Control Davenport,7217 Northwest Blvd Suite 4B,Davenport,Iowa,52806,41.5935646,-90.6111298
"Insight Pest Solutions - Boston, MA",50 Howe Ave #H,Millbury,Massachusetts,1527,42.197742,-71.7570269
Clean & Simple Pest Control,,,,,35.8824005,-83.948455
Striker Pest,,,,,37.163637,-93.3814015
Servall Termite & Pest Control,890 University St,Martin,Tennessee,38237,36.3493991,-88.8793316
Servall Termite & Pest Control,890 University St,Martin,Tennessee,38237,36.3493991,-88.8793316
Patio Patrol Collegeville,212 W Main St,Collegeville,Pennsylvania,19426,40.1962111,-75.4706345
Terminix,113 S Main St,Concord,New Hampshire,3301,43.1983692,-71.531171
Paske Pest Control & Wildlife Solutions,4888 Baumgartner Rd Suite A,St. Louis,Missouri,63129,38.4607008,-90.3483318
Royal-T Pest Control,1604 N Dogwood St,Owasso,Oklahoma,74055,36.2831091,-95.8513499
Presto-X Pest Control,4506 S 16th St,Fort Smith,Arkansas,72901,35.3406584,-94.4188331
A-Plus Pest Control,2109 Hillwood Dr,Centerville,Tennessee,37033,35.8293817,-87.4381673
Bug Runner-Exterminating Co,680 N Main St,Spring Valley,New York,10977,41.1368071,-74.0364422
Paupack Wildlife Control,121 Gumbletown Rd,Paupack,Pennsylvania,18451,41.3883041,-75.1850977
CC Inc | Crystal Clear Window Washing,,,,,46.8183305,-94.2311324
Straits Area Pest Control,3916 M-33,Cheboygan,Michigan,49721,45.5148304,-84.4519258
Newcomb's Environmental Services,704 Washington St,South Easton,Massachusetts,2375,42.0405922,-71.076101
A&S Pest Control,281 US-1,Norlina,North Carolina,27563,36.443016,-78.209731
David M Parker Exterminating,1408 Story Rd,Warrenton,Georgia,30828,33.4379456,-82.5731903
Terminix,2783-2785 PA-115 Suite 102,Effort,Pennsylvania,18330,40.949839,-75.4437136
Complete Pest Control Services,1105 Rochester Rd,Pittsburgh,Pennsylvania,15237,40.5389778,-80.0505603
Blue Valley Pest Control,278 SW Blue Pkwy,Lee's Summit,Missouri,64063,38.9055761,-94.3786165
Rock Pest Control,,,,,38.9893075,-94.5836026
EcoArmor Pest Defense,279 Highview Ln,Anna,Texas,75409,33.327257,-96.5943354
NJ Pest Control,196 US-206,Flanders,New Jersey,7836,40.8477555,-74.7018588
Anchor Pest Services,700 Harvey Rd Bldg 1,Manchester,New Hampshire,3103,42.9359882,-71.4254308
Go-Forth Services Inc,Services Inc,Spruce Pine,North Carolina,28777,35.870673,-82.0479286
Nelon-Cole Termite & Pest Control,2595 NC-108,Columbus,North Carolina,28722,35.2780058,-82.1805256
Mike's Pest and Termite Control,10400 Theodore Green Blvd,White Plains,Maryland,20695,38.5915623,-76.9474021
COMO Moles,,,,,38.946392,-92.33406
Go-Forth Pest Control,177 Claude Simmons Rd #1,Johnson City,Tennessee,37604,36.3127177,-82.4333737
Security Pest Elimination,9 Gordon Rd,North Reading,Massachusetts,1864,42.5689985,-71.1276999
"Terra Garden Solutions, Inc. Naples",6088 Lee Ann Ln Unit B,Naples,Florida,34109,26.2204099,-81.7767155
J&J Exterminating Lake Charles,1717 W Prien Lake Rd,Lake Charles,Louisiana,70601,30.1974321,-93.2460479
Home Paramount Pest Control,285 Commerce Dr,Ruckersville,Virginia,22968,38.2253764,-78.3739318
Security Pest Elimination,99 Summer St,Plymouth,Massachusetts,2360,41.9540213,-70.6681384
Pest Badger Eau Claire,,,,,44.808831,-91.4812495
Go-Forth Pest Control,667 N Washington St,Rutherfordton,North Carolina,28139,35.381371,-81.962729
SWAT Mosquito Systems,11371 Interchange Cir S,Miramar,Florida,33025,25.9715339,-80.2979736
Astro Pest Control Services,805 S Grant St,Fitzgerald,Georgia,31750,31.7065286,-83.2531307
Astro Pest Control Services,805 S Grant St,Fitzgerald,Georgia,31750,31.7065286,-83.2531307
"Zoellner Exterminating, Inc.",1307 U.S. Rte 66 Suite C-1,Catoosa,Oklahoma,74015,36.1740414,-95.7505162
Green Earth Exterminators,1800 Mormon Mill Rd Suite A5,Marble Falls,Texas,78654,30.5866871,-98.2698698
EcoShield Pest Solutions,1846 Cargo Ct,Louisville,Kentucky,40299,38.2174812,-85.5692015
Modern Solutions Pest Control,212 7th St,Rockford,Illinois,61104,42.2653765,-89.0803992
Erdye's Pest Control LLC,4990 W Greenville Dr,Appleton,Wisconsin,54913,44.2782107,-88.4810653
Orkin,811 US-82,Leland,Mississippi,38756,33.4012117,-90.8829512
Fox Pest Control South Bend,4314 Technology Dr,South Bend,Indiana,46628,41.734417,-86.3436126
Mosquito Joe of Rhode Island,1725 Mendon Rd # 208,Cumberland,Rhode Island,2864,41.9432233,-71.4341108
Patriot Pest Solutions LLC,414 W Main St,Trappe,Pennsylvania,19426,40.1983123,-75.4754536
A3 Superior Pest Control,432A US-206,Montague,New Jersey,7827,41.284841,-74.794882
Home Paramount Pest Control,6314 Sykesville Rd,Sykesville,Maryland,21784,39.4007296,-76.9524964
Adam's Pest Control,23973 Hazelwood Dr S Suite 200,Nisswa,Minnesota,56468,46.4988605,-94.3011257
Groton Pest Control,33 Prescott St,Groton,Massachusetts,1450,42.5956106,-71.5399159
Pest Detective,2520 Survey Rd,Dodgeville,Wisconsin,53533,42.9371124,-90.1734267
Mosquito Police,W9529 Mapleview Rd,Antigo,Wisconsin,54409,45.1177757,-89.1271038
CleanZone Pest Solutions,864 US-411,Etowah,Tennessee,37331,35.3423334,-84.5212957
Peppermint Pest Control,,,,,34.168035,-111.9307474
East Idaho Lawn Care,3993 E 20 N,Rigby,Idaho,83442,43.6297913,-111.9051162
HinsonHill Pest Control Co Inc,114 Second St,Manchester,Georgia,31816,32.8514784,-84.6140405
Burl's Termite & Pest Control,101 N Main St,Estill Springs,Tennessee,37330,35.2710745,-86.1287627
Rescue Mosquito Control,456 E Main St,Youngsville,North Carolina,27596,36.0243819,-78.465234
Little City Pest & Wildlife,,,,,41.403423,-82.845563
Security Pest Control,,,,,42.3495894,-83.4696404
Unique Outdoor Illumination & Mosquito Pros,11320 FM 529 Suite H,Houston,Texas,77041,29.8811891,-95.5797396
21st Century Termite & Pest Control,,,,,35.9199205,-85.3955525
TYGR Wildlife LLC,721 Poquoson Ave,Poquoson,Virginia,23662,37.1326699,-76.3843541
Catch'em Pest Control,2325 Terness Ave,Waterford,Michigan,48329,42.6736172,-83.3627355
Eliminator Pest Control LLC,,,,,43.0696169,-89.4236519
Presto Pest Control,100 Emlen Way,Telford,Pennsylvania,18969,40.3347585,-75.3259583
Nature Shield Pest Solutions,5211 Silver Mill Dr,Columbia,Missouri,65202,39.0066441,-92.3320784
Colonial Pest Control Inc.,32 Lake Ave,Worcester,Massachusetts,1604,42.2726289,-71.7594713
Lockout Pest Control,403 6th St,Brodhead,Wisconsin,53520,42.6246997,-89.3712368
Bug Out,20 E 1st Ave,Lexington,North Carolina,27292,35.8217538,-80.2521613
ServeICT Inc.,120 W 2nd Ave STE 1000,Goddard,Kansas,67052,37.6593152,-97.5757447
A BAD CRITTER,8002 Mineral Dr,Houston,Missouri,65483,37.3394864,-91.9558555
DT Pest Control L.L.C.,,,,,41.822381,-74.7387091
Bronx Exterminator At Last Pest Control,802 E 180th St,Bronx,New York,10460,40.8463074,-73.885463
"Preferred Pest Solutions, inc",,,,,40.8193196,-73.0576455
Varment Guard Wildlife Services,,,,,40.131973,-87.0629944
Smith Integrated Pest Management LLC.,,,,,40.441761,-86.8843215
Pestify Pest Control,4400 Nesconset Hwy,Port Jefferson Station,New York,11776,40.9110613,-73.0633739
Stan's Pest Control,1210 Pioneer Dr,Cottonwood,Arizona,86326,34.717377,-112.034047
Pest Animal Removal Mobile,,,,,30.731721,-87.6753495
Moyer Pest Control,124 S 4th St,Telford,Pennsylvania,18969,40.3199682,-75.3342457
The Critter Chick,506 Underwood Ave,Elmira,New York,14905,42.0853138,-76.8401802
Ecological Pest Services,97 Windsong Pl,Meredith,New Hampshire,3253,43.6053265,-71.5087663
Dewey Pest & Termite Control,45440 23rd St W,Lancaster,California,93536,34.7090857,-118.1713991
Clays Wildlife & Pest Services,18 Thistle Rd,Gilmanton,New Hampshire,3237,43.3944659,-71.3705089
Bennett Wildlife Removal LLC,,,,,43.4765666,-71.3029455
"Pest Management Services, Inc.",12761 Western Ave,Blue Island,Illinois,60406,41.6607929,-87.6798151
S.O.S. Exterminating,307 W Yuma St,Cottonwood,Arizona,86326,34.749783,-112.030235
Regional Pest Management,4333 Washington Blvd,Halethorpe,Maryland,21227,39.2382076,-76.6828125
American Pest Solutions,1260 Suffield St,Agawam,Massachusetts,1001,42.0467082,-72.6357658
Spidexx Pest Control - California,5625 State Farm Dr #34,Rohnert Park,California,94928,38.3564621,-122.7098152
Nature Pacific Pest Services,,,,,38.728328,-122.8020514
CNY Nuisance Wildlife,,,,,44.0375628,-75.830738
Home Defenders,26375 Pine Ave,Rimforest,California,92378,34.2292324,-117.2280418
Mosquito Squad & Pest Control of Williamsburg,1166 Jamestown Rd Suite E,Williamsburg,Virginia,23185,37.2544931,-76.7301514
Mosquito Authority,,,,,37.3474595,-76.5256915
James Pest Control,108 Tewning Rd,Williamsburg,Virginia,23188,37.2868753,-76.7355996
Swan Pest Control,,,,,37.2321905,-76.6847566
EnviroPest,,,,,42.206746,-75.9615892
Orkin,800 Shoemaker Ave,Shoemakersville,Pennsylvania,19555,40.5035572,-75.9647568
All In One Wildlife & Pest,45 Sterling St,West Boylston,Massachusetts,1583,42.3775117,-71.7759174
Kelly's Termite and Pest Control,,,,,33.6057194,-80.9266144
Ryan Voll-Nuisance Pest Control,,,,,43.0386414,-85.4685484
General Environmental Services,930 Eastern Ave,Malden,Massachusetts,2148,42.4303626,-71.043531
Thorough Pest Services LLC,,,,,40.791669,-74.2450979
"Bed Bug Inspection Group, LLC",,,,,41.902259,-75.7700406
What's bugging you? integrated Pest Management inc.,19 Maujer St,Brooklyn,New York,11206,40.7104499,-73.9505396
United Pest Management,,,,,35.655438,-78.719894
Good Bros. Pest Control,,,,,35.41461,-111.7577146
Truly Nolen Pest & Termite Control,3900 Historic Rte 66 #3,Flagstaff,Arizona,86004,35.2195228,-111.5895176
Critter Control of Northern Arizona - Flagstaff,,,,,35.6307564,-112.0524234
Atomic Pest Control,6500 US-89,Flagstaff,Arizona,86004,35.2396829,-111.5702907
"D-Bug Pest Control, Inc.",101 W Main St #103,Somerset,Pennsylvania,15501,40.008066,-79.078841
Dom's Pest Control,234 Brandywine Ln,Greensburg,Pennsylvania,15601,40.297216,-79.458922
Sean Rock Exterminating,419 Lemmon Rd,Latrobe,Pennsylvania,15650,40.2678563,-79.4524925
Pest Tech Inc,509 US-101,Florence,Oregon,97439,43.9711036,-124.1059381
Debug Your Bed - Pest Control,13 Town Farm Ln,Dunbarton,New Hampshire,3046,43.0688213,-71.6087411
Western Pest Services,1444 N Bethlehem Pike,Spring House,Pennsylvania,19477,40.2070884,-75.224192
Saela Pest Control,16099 N Franklin Blvd Ste 1,Nampa,Idaho,83687,43.6065498,-116.5535373
Handle the House,100 W Kleine Ln,Lititz,Pennsylvania,17543,40.1591574,-76.3109958
Northwest Exterminating - Bonita Springs,9200 Cockleshell Dr,Bonita Springs,Florida,34135,26.3606652,-81.7894031
ABC Home & Commercial Services,1321 W Randol Mill Rd Suite ABC,Arlington,Texas,76012,32.7505159,-97.1257167
"Envirocare Pest Control, LLC",1020 Echo Lake Rd,Watertown,Connecticut,6795,41.6101573,-73.0824232
ProSource Pest Solutions,3356 E Main St,Waterbury,Connecticut,6705,41.5444543,-72.978587
Mosquito Squad of East Idaho,,,,,43.3758519,-112.143638
You Betcha Pest Control,235 1st St NW,Elgin,Minnesota,55932,44.1318843,-92.257385
ALM Exterminating,5 Vause St,Northport,New York,11768,40.902204,-73.3236389
Best Known Pest & Wildlife,,,,,42.5739815,-71.2604279
Chase-Away,838 Coopertown Rd,Unionville,Tennessee,37180,35.6694963,-86.5949349
Effective Solutions,501 Wood Crest Ct,Woodstock,Georgia,30189,34.0990006,-84.56208
Arrow Exterminators,8681 GA-92 #200,Woodstock,Georgia,30189,34.0871774,-84.5440615
Northwest Exterminating - Buford,929 Buford Hwy NE,Buford,Georgia,30518,34.0843705,-84.0301951
"D-Bug Pest Control, Inc.",4215 Gantz Rd,Grove City,Ohio,43123,39.8762601,-83.0563543
"D-Bug Pest Control, Inc.",4215 Gantz Rd,Grove City,Ohio,43123,39.8762601,-83.0563543
Truly Nolen Pest and Termite Control Grove City,1668 Pinnacle Club Dr,Grove City,Ohio,43123,39.8619246,-83.048833
Born Again Lawn & Pest,,,,,40.3633984,-82.669505
Nick's Termite & Pest Control,,Marion,Kentucky,42064,37.3328286,-88.0811349
Knock 'Em Out Pest Control of Ann Arbor,4477 Jackson Rd Ste 500,Ann Arbor,Michigan,48103,42.285348,-83.8184374
BayPest Solutions,,,,,44.5575864,-88.0297955
Critter Control of Green Bay,,,,,44.4433985,-87.935313
Truly Nolan,,Arcadia,Florida,34266,27.2158826,-81.8584164
Mosquito Authority,,,,,32.9117154,-96.602137
T-Rex Pest Control,1074 Sewell Dr,Fate,Texas,75189,32.9543421,-96.3681291
Nextgen Pest Solutions,1428 Gulf to Bay Blvd,Clearwater,Florida,33755,27.9640678,-82.7779693
Mandau's Pest Solutions,9750 Camp Ohio Rd,Utica,Ohio,43080,40.2324953,-82.3634581
Aptive Pest Control,,,,,35.1313274,-89.963762
Terminix,1656 N Shelby Oaks Dr Suite 7,Memphis,Tennessee,38134,35.1700043,-89.8517575
Stanley Pest Control,2524 W Woodland Dr,Anaheim,California,92801,33.848967,-117.972594
GLE,,,,,45.822134,-84.521377
"Mosquito Authority - Gaylord, MI",,,,,45.227453,-84.929403
NEVER PESTS PEST CONTROL,5908 Lugene Ave,Bakersfield,California,93313,35.3011898,-119.042687
Serv Pest Solutions,,,,,41.796246,-70.3385445
"Nooga Pest Control, LLC",11305 McGhee Rd,Apison,Tennessee,37302,35.0089912,-85.0277106
Presto-X Pest Control,6541 Weatherfield Ct,Maumee,Ohio,43537,41.574443,-83.6969309
Terminix,6541 Weatherfield Ct,Maumee,Ohio,43537,41.574443,-83.6969309
American Legion,219 E Maple St,Canton,Ohio,44720,40.8760246,-81.4005177
Greenix Pest Control,7901 Cleveland Ave NW Suite 7-9,North Canton,Ohio,44720,40.9007507,-81.4074526
Master Pest Solutions,972 Willow Branch Dr,Orlando,Florida,32828,28.5352585,-81.1559935
Professional Bug Solutions,618 Sherman Ave,Ashland,Ohio,44805,40.872346,-82.29768
Fox Pest Control Rhode Island,1300 Jefferson Blvd Suite A,Warwick,Rhode Island,2886,41.712888,-71.4478993
Cobra Pest Control,2845 Post Rd Suite 210,Warwick,Rhode Island,2886,41.7074796,-71.4522535
McCauley Services,101 W Main St,Farmington,Arkansas,72730,36.0423066,-94.2359881
Bowers Wildlife Control,2898 K Dr S,East Leroy,Michigan,49051,42.162087,-85.238519
Eliminate 'Em Pest Control Services,38 Beach Ave,Terryville,Connecticut,6786,41.6762533,-73.0063112
Gratwick Pest Control,,,,,43.086478,-78.8112606
5W Pest Control and Home Services,,,,,32.2910469,-95.3543784
ABC Home & Commercial Services,3307 Chandler Hwy,Tyler,Texas,75702,32.3468896,-95.3368446
Fadden Custom Pest Services LLC Lebanon,,,,,43.830751,-70.3074
Fadden Custom Pest Services LLC Lebanon,,,,,43.830751,-70.3074
Greenix Pest Control,300 Delaware Ave Suite 2215,Wilmington,Delaware,19801,39.7466366,-75.5505003
Affordable Pest Control Service,307 S Maryland Ave,Wilmington,Delaware,19804,39.7261178,-75.5897766
GEESE CHASERS DE,1201 Orange St Suite #7389,Wilmington,Delaware,19801,39.7480703,-75.5480036
"GetLocal Services, LLC",,,,,33.4552369,-80.6675325
A-1 Pest Control,,,,,29.2230031,-97.1578324
The Mouse Man,,,,,41.0419789,-80.8027956
Arrow Exterminators,366 Glascock St,Alcoa,Tennessee,37701,35.7629786,-83.977789
Red Flag Pest Control,9856 US-280,Jackson's Gap,Alabama,36861,32.8901584,-85.8761883
Terminix,3241 Asheville Rd,Waynesville,North Carolina,28786,35.5183485,-82.9634858
Pine State Pest Solutions,508 Washington St N,Auburn,Maine,4210,44.0740578,-70.2411306
"Pest2kill, Inc",,,,,41.1613125,-74.0608863
Dependable Exterminating,19 Don Bosco Ln,Stony Point,New York,10980,41.2212693,-74.0108425
HomeTeam Pest Defense,1120 Palmyrita Ave STE 210,Riverside,California,92507,34.0043378,-117.3361869
Nest Pest Services,,,,,39.000541,-76.8572675
All Service,,,,,29.5729985,-98.324631
ABC Home & Commercial Services,,,,,29.9175965,-97.878345
Parker Pest Control Services,,,,,39.5690715,-104.8000434
Mosquito Squad of Leominster,22 Kimball Pl,Fitchburg,Massachusetts,1420,42.5855986,-71.8104108
Sun Valley Pest Services,,,,,33.6043256,-112.124793
Bowco Labs Pest Control Edison,49 Glendale Ave,Edison,New Jersey,8817,40.4947128,-74.4016321
Pest Plus,24 N 3rd Ave,Highland Park,New Jersey,8904,40.4998341,-74.4286947
Insight Pest Solutions,1525 Addison Ave E suite b4,Twin Falls,Idaho,83301,42.5635642,-114.454831
Bacon's Pest Control,,,,,41.9377966,-88.7328544
Kidwell Pest Management,195 Township Rd 158,Ashley,Ohio,43003,40.4369582,-83.0101163
Select Choice Pest Control,39 S Liberty St #2,Delaware,Ohio,43015,40.2978349,-83.0728414
C&C Pest Control and Inspection Sevice LLC,W Lasiter Rd,Kingston,Oklahoma,73439,33.9547994,-96.7600464
Best Bee Removal,,,,,40.1985345,-76.2492334
Quik-Kill Pest Eliminators Inc Dwight,,,,,41.0996995,-88.4214385
Mrs. Bzzz Pest & Termite Solutions - Stroudsburg,814 Monroe St #101,Stroudsburg,Pennsylvania,18360,40.9858889,-75.1974219
Massey Services Pest Control,159 19th St N,Jacksonville Beach,Florida,32250,30.2891739,-81.4109868
Yale Pest Control,69 Mott St,Ansonia,Connecticut,6401,41.3433431,-73.0731749
J & S Pest Management,13725 Beach Blvd,Jacksonville,Florida,32224,30.2887472,-81.4576602
Home Paramount Pest Control,5153 E Trindle Rd,Mechanicsburg,Pennsylvania,17050,40.2231854,-76.9793021
Bee Friendly Pest Control,13 Fern Ave,Collingswood,New Jersey,8108,39.9156808,-75.0654483
Southern Pest Control,3300 Crescent Blvd,Oaklyn,New Jersey,8107,39.904202,-75.0953417
Viking Pest Control,449 W Nicholson Rd,Audubon,New Jersey,8106,39.8935168,-75.0827037
Ecogenix pest control,2901 SE Rosespring Dr,Hillsboro,Oregon,97123,45.5076087,-122.9529835
Mid-Atlantic Pest Control,26 Kletsk Hill Rd,Lakewood,New Jersey,8701,40.0917142,-74.2550916
Advanced Pest Solutions,107 Stevenstown Rd STE 1,Litchfield,Maine,4350,44.1858138,-69.900905
Z-Pro Pest Control,,,,,36.987505,-121.6418682
Terminix,200 13th Ave #1a,Ronkonkoma,New York,11779,40.7916332,-73.1459321
Tac Exterminators Inc,198 Cawston Ave N,Hemet,California,92545,33.7472136,-117.0149146
ALL STAR ANIMAL TRAPPING,,,,,34.617562,-115.966875
EcoBarrier Exterminators,4910 US-89,Flagstaff,Arizona,86004,35.2257743,-111.578621
Your Extermination Solution,4437 Western Dr,Cottonwood,Arizona,86326,34.6940196,-111.9783474
Rest Easy Pest Control,,,,,40.6507535,-73.8711404
Leonardo Termite & Pest Control,4760 Bensalem Blvd,Bensalem,Pennsylvania,19020,40.1070629,-74.9143422
Terminators Pest Control LLC,4201 Neshaminy Blvd #273,Bensalem,Pennsylvania,19020,40.1357605,-74.9509253
All County Pest Control,5 S Veschi Lane South,Mahopac,New York,10541,41.3618865,-73.7459461
Ortiz Pest & Termite Solutions LLC,,,,,32.605674,-114.5724574
Maxx Force Pest Control,,,,,32.5853236,-114.46027
Bug Guy Pest Services LLC,,,,,37.272731,-89.692595
City Wide Exterminating,6025 Blakeney Park Dr #202,Charlotte,North Carolina,28277,35.0319592,-80.8069449
Bradshaw Pest Control,244 E Davis St,Elba,Alabama,36323,31.41299,-86.0609489
Intermountain Pest Management LLC,,McCall,Idaho,83638,44.9109501,-116.0987522
Mosquito Joe of Braintree-Weymouth,100 East St #2,Weymouth,Massachusetts,2189,42.2311504,-70.9402313
EcoNest Pest Solutions,152 Morgan Way,Mt Shasta,California,96067,41.3091048,-122.3154296
"Extermatrim Exterminating, Inc.",,,,,30.4836934,-92.6884245
Total Home Management LLC,,,,,40.6514114,-77.2024542
Advanced Pest Management,245 High St,Chestertown,Maryland,21620,39.2089151,-76.0666042
Advanced Pest Management,245 High St,Chestertown,Maryland,21620,39.2089151,-76.0666042
Amco Ranger Termite & Pest Solutions,5185 State Rte N,Cottleville,Missouri,63304,38.7447013,-90.6453591
Precision Termite & Pest Control,100 Hampton House Rd,Newton,New Jersey,7860,41.0902869,-74.7297527
On Point Pest Control,93 Spring St Ste 405,Newton,New Jersey,7860,41.0581593,-74.7522247
Aptive Pest Control,,,,,41.43974,-81.6665385
Epcon Lane,4429 State Rd Suite #21,Cleveland,Ohio,44109,41.4336988,-81.7066454
EZ Bed Bug Exterminator Cleveland,,,,,41.450652,-81.68108
G & G Exterminating,,,,,41.501222,-81.555056
Tri State Pest Management,155 S Dupont Hwy,New Castle,Delaware,19720,39.6599429,-75.6110188
Home Paramount Pest Control,769 S Dupont Hwy,New Castle,Delaware,19720,39.6284709,-75.6366758
Orkin,34 Industrial Blvd Ste 102,New Castle,Delaware,19720,39.6923086,-75.569427
Zap Pest Control,189 N 100 W St,Gunnison,Utah,84634,39.1582844,-111.8217834
All State Pro Exterminators LLC,,,,,40.5915685,-74.6029544
Death Row Pest Control,3779 Raleigh-Elam Rd,Santa Fe,Tennessee,38482,35.7816114,-87.1598781
"1 Stop Pest Control, LLC",,,,,42.8932304,-74.007822
TruNorth Pest Control,5916 E Lake Pkwy Suite 315,McDonough,Georgia,30253,33.5072674,-84.1479663
Daps Pest Services,101 Morgan Dr,McDonough,Georgia,30253,33.4448891,-84.1368145
Arrow Exterminators,45 Keys Ferry St,McDonough,Georgia,30253,33.4467907,-84.1456118
Those Pest Solutions LLC,,,,,38.171275,-97.8127899
T&K Dryer Vent & Air Duct Cleaning And Chimney Inspection Services LLC,3808 Lisa Ln,Collegeville,Pennsylvania,19426,40.1850956,-75.4286489
Reliable pest and animal control,178 Behnke Ave,Paramus,New Jersey,7652,40.932543,-74.0574011
Brown Exterminating Co,5032 Lee State Rte,Dublin,Virginia,24084,37.0989634,-80.7018138
Burke Pest Control,585 Conklin Rd,Binghamton,New York,13903,42.1005549,-75.864647
Guardian Pest Pros,1006 E 4th St,Dequincy,Louisiana,70633,30.4513871,-93.4242776
"Bowco Labs Pest Control Morristown, NJ",50 Madison Ave suite b,Morristown,New Jersey,7960,40.7888308,-74.4681046
Prompt Action Bat & Pest Control,827 S Hillcrest Pkwy,Altoona,Wisconsin,54720,44.793189,-91.4280889
1st Choice Pest Solutions,3019 Sky Hawk Dr,Eau Claire,Wisconsin,54703,44.8043562,-91.5546526
All Natural Pest Control Solutions,530 Secaucus Rd #201,Secaucus,New Jersey,7094,40.7774842,-74.064252
Last Call Pest Services,,,,,33.731282,-84.3278884
Massey Services Pest Control,1901 Montreal Rd # 101,Tucker,Georgia,30084,33.8387748,-84.2560656
Arrow Exterminators,2695 Leeshire Rd,Tucker,Georgia,30084,33.8659938,-84.1844964
Five Star Pest Control,,,,,35.1359874,-94.512283
"914 Wildlife Management, LLC",,,,,34.6241496,-92.8257075
Advantage Pest Management,7270 Gilpin Way Ste 190,Denver,Colorado,80229,39.8286368,-104.9652765
Houchins Pest Control Services,110 N 2nd Ave,Hopewell,Virginia,23860,37.3025192,-77.2886007
Indiana Mosquito Busters,910 E Pierceton Rd,Winona Lake,Indiana,46590,41.2157715,-85.8092661
Solveary,220 Engelwood Dr Suite B,Orion Twp,Michigan,48359,42.7181217,-83.2451677
Clever Pest Solutions,16676 SE Hwy 19,Cross City,Florida,32628,29.633122,-83.124008
ShieldPro Pest Control,520 N Main St,Schulenburg,Texas,78956,29.6801317,-96.9056196
Mosquito Shield of Central CT,,,,,41.5462119,-72.4953774
Stark Exterminators,1714 Greensboro Ave,Tuscaloosa,Alabama,35401,33.1964417,-87.562865
Bee Removal Service,6357 Old Washington Rd,Elkridge,Maryland,21075,39.2038381,-76.7292805
Pest Control 4 You,6010 Meadowridge Rd,Elkridge,Maryland,21075,39.2098623,-76.7828924
Insect Deflect,,,,,35.0823726,-106.671984
Goldstar Services,,,,,35.9277595,-114.9698486
BOGO Pest Control,600 Twelve Oaks Center Dr #213,Wayzata,Minnesota,55391,44.97343,-93.475328
The Bug Master,3128 Thornton Ln,Temple,Texas,76502,31.0778694,-97.3857545
Hargrove Pest & Termite Control,,,,,30.8077614,-97.9504385
Mites Pest Control,4835 Lakeaire Cir,Temple,Texas,76502,31.1683489,-97.4625237
"ACH Pest, Inc.",320 Greenview Dr Ste. 103,Temple,Texas,76502,31.1072108,-97.3939307
Trust Exterminating,6176 US-411 Suite B,Benton,Tennessee,37307,35.1709887,-84.6535932
Franklin Pest Solutions,1715 Franklin St,Michigan City,Indiana,46360,41.706454,-86.8967335
The Critter Guys,,,,,26.4638465,-80.4301795
Truly Nolen Pest & Termite Control,620 Lake Minnie Dr,Sanford,Florida,32773,28.7510099,-81.2908776
Kane Exterminating Corp.,153 Main St,Kings Park,New York,11754,40.8873488,-73.2587295
Urbanex Pest Control,230 Great Circle Rd Suite 210,Nashville,Tennessee,37228,36.1951216,-86.7935493
Plunkett's Pest Control,1710 23rd St S,Moorhead,Minnesota,56560,46.8570369,-96.7446884
Bulwark Exterminating,17316 Bell N Dr,Schertz,Texas,78154,29.6184529,-98.2932303
Tapper Pest Management,42672 Co Rd 374,Paw Paw,Michigan,49079,42.2248786,-85.9630568
Critter Control of Southern Maine,,,,,44.0035584,-70.1222469
Harris' Pest and Termite Control,1564 Sandra St,Morgan City,Louisiana,70380,29.695559,-91.1908431
Terminix,17830 Lavo Ln,Baton Rouge,Louisiana,70810,30.3425969,-91.0275226
Cotton's Pest Control,12366 LA-44,Gonzales,Louisiana,70737,30.2499972,-90.920377
Serene Property Services LLC,,,,,41.1465444,-74.5277685
Lakeside Pest Control,4785 12 Corners Rd,Auburn,New York,13021,42.848083,-76.458678
Nature King Pest Management,,,,,32.8353211,-96.6679035
24 7 Bed Bug Removal,2962 Poplar Ave,Memphis,Tennessee,38111,35.1336043,-89.9629058
Affordable Wildlife Solution,35 Running Deer Rd,Dartmouth,Massachusetts,2747,41.7022883,-71.0040076
Pest Hunter Inc,4403 15th Ave,Brooklyn,New York,11219,40.634915,-73.984718
Five Star Trapping & Pest Control,1310 52nd St,Brooklyn,New York,11219,40.6330732,-73.9935888
Pestco Inc,1301 43rd St,Brooklyn,New York,11219,40.6383571,-73.9883099
Tri-State Pest Control,947 44th St,Brooklyn,New York,11219,40.6425523,-73.9966173
First Choice Exterminating corp,1274 49th St,Brooklyn,New York,11219,40.6351911,-73.992567
Sun Services Inc,19249 SW 118th Pl,Miami,Florida,33177,25.5878029,-80.3838993
Herritt's Pest Control,4280 Cedar Dr,Walnutport,Pennsylvania,18088,40.770762,-75.5471759
Layer One,2477 Concrete Rd,Carlisle,Kentucky,40311,38.3134572,-84.0511851
Wildlife Removal Seattle,,,,,47.432463,-121.803803
Luxe Pest Control,32 Ruth Pl,Plainview,New York,11803,40.7652229,-73.4694157
Envirotreat Pest Control,7432 Monona Terrace,Rockville,Maryland,20855,39.1104223,-77.1517437
Ogles Exterminating,,,,,36.965421,-85.987819
Brody Brothers Pest Control in Rockville,647 Lofstrand Ln unit g,Rockville,Maryland,20850,39.0922065,-77.1398429
Best Bees LLC,,,,,36.2655174,-115.2343695
"American Pest Control, Inc.",667 W Currahee St,Toccoa,Georgia,30577,34.5752754,-83.3402404
"Excalibur Extermination, LLC",7715 Grace Ave,Pasadena,Maryland,21122,39.1432256,-76.5424333
Kidd Exterminating,5764 N Dixie Hwy,Bonnieville,Kentucky,42713,37.350609,-85.9084846
Jeff Jock,2367 US-11,Bangor,New York,12966,44.8417949,-74.4098035
Commando Pest Control & Trappers,,,,,28.4297664,-81.417667
Legacy Pest Control,1250 Lewis Dr,Ogden,Utah,84404,41.2586851,-111.9465988
Orkin,3475 Forest Lake Dr Ste 200,Uniontown,Ohio,44685,40.9685063,-81.4725942
Green Pest Solutions,1004 Saunders Ln #201,West Chester,Pennsylvania,19380,39.9830008,-75.5936067
Fox Pest Control Wildwood,2836 Co Rd 523 Ste F7,Wildwood,Florida,34785,28.7973943,-82.0559322
Green Smiths Pest Control Inc,,,,,28.9134715,-81.9427794
Arrow Exterminators - North Florida Commercial Services,417 N Market St suite a,Bushnell,Florida,33513,28.668035,-82.1114906
PestBear,6114 FL-44,Wildwood,Florida,34785,28.834875,-82.0019499
Mosquito Joe of Leominster-Worcester,,,,,42.3994714,-71.7408898
Affordable Termite Control In Santa Ana CA,,,,,33.640814,-117.7803964
Pro Pest Control Issaquah,,,,,47.5406444,-122.1214934
Insight Pest Solutions,704 Main St Suite 305-6,Oregon City,Oregon,97045,45.3575513,-122.6080534
Terminix,1 Labriola Ct,Armonk,New York,10504,41.1161361,-73.7216008
"Lemke Pest Control, LLC",2620 N Broadway Ave,Rochester,Minnesota,55906,44.0523329,-92.4543495
Lu-Crest Pest Control LLC,133 W 3rd St,Perrysville,Ohio,44864,40.6587822,-82.312907
Eco Pest Control,,,,,40.915901,-82.599348
Black Sheep Pest Protection,8218 16th St,Elverta,California,95626,38.7184745,-121.4288105
Direct Hit Pest Control,6832 8th St,Rio Linda,California,95673,38.692212,-121.447373
Pest Arrest LLC,920 Hawthorne St,Red Wing,Minnesota,55066,44.5534808,-92.5371443
Arrow Exterminators,3642 Peddie Dr,Tallahassee,Florida,32303,30.4686564,-84.3517869
Live Free Wildlife Solutions LLC,12 Cross Rd,Sunapee,New Hampshire,3782,43.3456895,-72.1002128
World Pest Control Inc.,1306 S Washington St,Plainville,Kansas,67663,39.2218271,-99.2987794
Chino Valley Pest Control,4195 Chino Hills Pkwy #352,Chino Hills,California,91709,33.9819557,-117.713148
Bug Busters Inc,1141 Elm St W,Hampton,South Carolina,29924,32.8784817,-81.121949
Critter Control of Madison,,,,,43.3427705,-88.8772276
Northern Pest,,,,,46.891816,-86.9861095
"Pest Control Services, Inc.",5011 Ambassador Row,Corpus Christi,Texas,78416,27.7470671,-97.4456797
"JS Thompson Services, LLC",,,,,32.5146985,-80.7127705
Ehrlich Pest Control,75 Orchard Dr Suite 102,Shamokin,Pennsylvania,17820,40.9267179,-76.4958432
Ehrlich Pest Control,408 S Claude A Lord Blvd,Pottsville,Pennsylvania,17901,40.6825466,-76.1907204
Surefire Pest Control,,,,,36.166129,-115.1496886
Uma Pest Control,200 W Milton Ave,Rahway,New Jersey,7065,40.6061909,-74.281691
Ace Walco Pest Control,384 Long Hill Rd,Gillette,New Jersey,7933,40.688188,-74.4595298
Western Pest Services,1048 US-22,Mountainside,New Jersey,7092,40.6840748,-74.3375921
TEAM TERMITE & PEST CONTROL LLC,15 Pressey St,Hammonton,New Jersey,8037,39.6334759,-74.7986833
EnviroGuard Solutions Inc.,4536 Plank Rd Suite 100,Fredericksburg,Virginia,22407,38.287637,-77.538371
New Technology Solutions,,,,,37.864604,-109.6134074
Dodson Pest Control,1 Fergueson Dr,Parkersburg,West Virginia,26101,39.2377634,-81.5262044
Absolute Pest Management Inc,608 Bridge St,Huntington,West Virginia,25702,38.4296095,-82.3816287
Cook & Associates,,,,,37.878638,-122.4203375
Humble Bee Removal,,,,,37.4113999,-122.1705044
Alaska Pest Management Inc,4033 Tongass Ave #200,Ketchikan,Alaska,99901,55.3579407,-131.6977329
Royalty Home Inspection Services,1506 Delong Dr,Downingtown,Pennsylvania,19335,39.9736767,-75.7232525
The Wasp Expert,,,,,40.0509545,-75.6931494
Martin Exterminating,1780 Roanoke Ave,Roanoke Rapids,North Carolina,27870,36.4463596,-77.6646521
Vector Disease Control Inc,,Groveland,Idaho,,43.222549,-112.372429
Dewey Pest & Termite Control,14300 Valley Center Dr,Victorville,California,92395,34.5109597,-117.321596
Vista Pest Control Company,,,,,32.9082225,-117.084309
"Master Pest Solutions, LLC",25270 Rabb Rd,La Feria,Texas,78559,26.1922179,-97.8372628
"Garden State Pest Solutions Somerdale, NJ",,,,,39.8101325,-74.9298551
SmartExterminators,445 County Rd 663,Jersey City,New Jersey,7307,40.7499611,-74.0467753
Massey Services Pest Control,20545 Independence Blvd #D,Groveland,Florida,34736,28.6464448,-81.8290111
Cousins USA Pest Control Central Florida,1837 Western Hills Ln,Mascotte,Florida,34753,28.5811837,-81.8790895
Webenex Services Pest Control,1504 Max Hooks Rd,Groveland,Florida,34736,28.5674891,-81.8050464
Ehrlich Pest Control,6300 Collett Rd Suite 6,Farmington,New York,14425,42.9839926,-77.3700364
Ridgewood Exterminator,,,,,40.6971415,-73.979506
Bold Servicing - Florida,1717 E Busch Blvd Unit 807,Tampa,Florida,33612,28.0318555,-82.4394542
Pan-Pro Pest Services LLC,,,,,40.5346936,-74.3422835
Harvest Valley Pest Control,894 US-2 Suite L,Leavenworth,Washington,98826,47.5961649,-120.6619633
Steve's Pest Control,,,,,47.5915859,-120.6585051
Hills Pest Control,720 Ashley Rd 70,Hamburg,Arkansas,71646,33.27986,-91.739112
D&j pest control,2345 Cincinnati Rd,Georgetown,Kentucky,40324,38.2845379,-84.5660503
Terminix Central Oregon Pest Control,40 SE Bridgeford Blvd,Bend,Oregon,97702,44.0504533,-121.2906157
"Alpine Southwest, LLC",960 E 6th St,Weiser,Idaho,83672,44.2508665,-116.9594346
PJ Mac Pest Control,102 E Montgomery Ave #212,Ardmore,Pennsylvania,19003,40.0086133,-75.2865954
A Amendt Pest Control Co Inc,,Ardmore,Pennsylvania,19003,40.0021598,-75.3003065
"Dependable Exterminating Co., Inc.",2812 Coddington Ave,Bronx,New York,10461,40.8383096,-73.8343957
John J. McCann Exterminating Company,4325 162nd St,Flushing,New York,11358,40.7579384,-73.8040318
Swan's Pest Control,1214 Minnesota Ave,St Cloud,Florida,34769,28.2464768,-81.2871082
All Star Home Services,275 Watkins Dr,Moscow,Tennessee,38057,35.1144365,-89.3949214
Aardvarks Home Service,,,,,32.4460164,-111.8908745
Pest Guard Exterminating,71 Cavalier Blvd #127,Florence,Kentucky,41042,39.0080949,-84.6371862
Best Bed Bug Heating LLC,"7206, 31 W 34th St.",New York,New York,10001,40.7495564,-73.9868076
Saela Pest Control,713 N Lindenwood Dr Suite B-C,Olathe,Kansas,66062,38.8917652,-94.7855025
Martin Pest Control,475 Smith St,North Attleborough,Massachusetts,2760,41.9787933,-71.3191739
"Day & Night Pest Control, LLC",,,,,41.0455545,-81.1080275
DPC Services,7770 Newnan Rd Ste C,Brooks,Georgia,30205,33.2544174,-84.4905481
D & H Services,51 Meadows Ln,Senoia,Georgia,30276,33.2728861,-84.5399315
Ennis Exterminating,949 Hwy 85 Connector,Brooks,Georgia,30205,33.2907569,-84.4590555
HUB Pest Solutions,1429 Woodlands Dr,Kyle,Texas,78640,29.9567274,-97.8483914
Eviction Pest Solutions,21 Marybelle Rd,Tully,New York,13159,42.7785587,-76.1155799
All State Pest Control,,,,,40.8934825,-73.0182904
Eudaimonia Pest Control,306 Throop St,West Babylon,New York,11704,40.7270824,-73.3456594
"Rantech, Inc",,,,,40.7686675,-73.4090346
Seaport Pest Solutions Cape Cod,20 R Holman Rd,Plymouth,Massachusetts,2360,41.927618,-70.658605
Pilgrim Pest Professionals,15 Roberts Rd Ste E,Plymouth,Massachusetts,2360,41.9146656,-70.7342138
At Last Pest Control,496 Sunrise Hwy,West Babylon,New York,11704,40.712941,-73.3549024
"United States Pest Service, LLC",211 W Main St,Middletown,New York,10940,41.4475138,-74.434541
Pest 2 Rest,,,,,40.311815,-75.7276236
First Class Pest Control,2667 Bay Crest Ln SE,Loganville,Georgia,30052,33.8833897,-83.9369077
W.L PEST CONTROL LLC,,,,,33.862637,-84.174979
Greenapsis Pest Control,,,,,46.423669,-129.9427086
Ecoguard,614 Cedar Ave,Pine Beach,New Jersey,8741,39.9332173,-74.1621754
Genesis Pest Control,13450 N Manito Rd,Manito,Illinois,61546,40.5120539,-89.7834257
"Integrated Home Management Services, LLC",,,,,41.3088865,-73.127838
Aid Pest Control of Salem and Anderson Aid Pest Control,267 E State St,Salem,Ohio,44460,40.9008929,-80.8554959
Discreet Bed Bug Inspections,301 W 57th St #12A,New York,New York,10019,40.767078,-73.9831196
Manhattan Bed Bug Exterminator,,,,,41.902259,-75.7700406
Pest-X Exterminating,2602 Eric Ln suite d-1,Burlington,North Carolina,27215,36.0644826,-79.4729123
Terminix Triad,2348 Hanford Rd,Burlington,North Carolina,27215,36.0610916,-79.4373946
Orkin,225 Tollage Creek,Pikeville,Kentucky,41501,37.5119991,-82.5362272
"Gath's Pest Patrol, LLC",,,,,45.371734,-122.463313
Rocket Pest Control,3500 Loop Rd Suite B3,McDonough,Georgia,30253,33.4173636,-84.1981281
Active Pest Control,1745 Pennsylvania Ave,McDonough,Georgia,30253,33.4357051,-84.1739512
Triangle Pest Control,108 Thomas Mill Rd #202,Holly Springs,North Carolina,27540,35.6565073,-78.8523268
Root Home Services,,,,,30.3961239,-97.6995555
Albemarle Pest Solutions,,Kill Devil Hills,North Carolina,27948,36.0308001,-75.6760592
Aptive Pest Control,,,,,38.6821555,-90.321608
Rottler Pest Solutions,2690 Masterson Ave,St. Louis,Missouri,63114,38.704103,-90.342589
Beebe's Pest & Termite Control Inc,18598 Co Rd 26,Foley,Alabama,36535,30.3916554,-87.7072517
Terminix,756 Washington Ave,Statesville,North Carolina,28677,35.7751935,-80.8823075
Animal Damage Management,16170 Vineyard Blvd #150,Morgan Hill,California,95037,37.117081,-121.639237
Nunez Live Bee Removal,17860 Casa Ln,Morgan Hill,California,95037,37.1481045,-121.6396738
Integrity Pest Management San Jose,,,,,37.3125859,-121.7134476
Tactical Extermination,,,,,36.8407424,-121.3996075
Aptive Pest Control,,,,,37.020334,-121.736331
Western Way Termite and Pest Services Inc.,8505 Church St Suite 7,Gilroy,California,95020,37.0201873,-121.5782057
Termite Biz,,Morgan Hill,California,95037,37.1316461,-121.6550311
Silicon Valley Trapping and Removal,,,,,37.2738064,-121.9704345
Abc Animal & Bird Control,,,,,37.253349,-121.9110386
Western Exterminator Co,17600 Monterey Rd,Morgan Hill,California,95037,37.1305472,-121.6543886
Massey Services Pest Control,"1320 S, 1320 State Hwy 3 Suite A-1",League City,Texas,77573,29.494379,-95.0821486
Mosquito Squad of Southern Maine,28 Adams Way,Scarborough,Maine,4074,43.5917295,-70.3333457
Green Shield Pest Solutions,11 Eastview Pkwy #106,Saco,Maine,4072,43.5570775,-70.4008828
Geiger Pest Control,,,,,43.036398,-78.8855304
Tubbs Pest Management,57344 MN-7,Appleton,Minnesota,56208,45.2221794,-96.1096199
Aptive Pest Control,,,,,40.618312,-80.22048
Crews Complete Pest Solutions,,,,,27.2361475,-82.0171315
ACI Pest & Lawn Solutions - Marble Falls,2000 N U.S. Hwy 281,Marble Falls,Texas,78654,30.5910935,-98.2736183
Firewall Pest Management,,Bonney Lake,Washington,98391,47.1780276,-122.1829492
Massey Services Pest Control,6595 US-1,Vero Beach,Florida,32967,27.7133953,-80.419876
Orkin,1218 11th Ave,Meridian,Mississippi,39301,32.3697161,-88.6895325
Orkin,3403 Hardy St,Hattiesburg,Mississippi,39402,31.3251768,-89.3411959
Alternative Earthcare,240 S Fehr Way,Bay Shore,New York,11706,40.7644731,-73.2847439
ProTreat Pest & Lawn Services,705 S Goliad St,Rockwall,Texas,75087,32.92388,-96.4601063
Beloit Pest Control,,,,,42.4197666,-89.048808
Positive Pest Management,166 E 96th St,New York,New York,10128,40.7853601,-73.9503187
Positive Pest Management,166 E 96th St,New York,New York,10128,40.7853601,-73.9503187
Bed Bug Exterminator NYC,40 Fulton St,New York,New York,10038,40.7078943,-74.0049023
Pestrol,31 W 34th St. 8th floor,New York,New York,10001,40.7497371,-73.9864606
Victory Pest Solutions,330 W 38th St Suite 1408,New York,New York,10018,40.75536,-73.9935211
"BHB Pest Elimination, LLC",121 W 27th St #1203,New York,New York,10001,40.7460636,-73.9919419
Gullette Pest and Lawn Services,,,,,33.4705346,-96.846758
First Choice Pest Control,930 Brook St,Olean,New York,14760,42.0786705,-78.4080729
Mosquito Shield of East Central NJ,1254 US-22,Mountainside,New Jersey,7092,40.6770823,-74.3486313
Brooklyn Heights Exterminators,,,,,41.902259,-75.7700406
Black Pearl Pest Control,,,,,33.232089,-111.2660401
Green Pest Management,117 W Gay St Suite #110,West Chester,Pennsylvania,19380,39.9600428,-75.6071236
Guardian Mosquito and Tick Control,,,,,40.024314,-77.4681349
Ohio Valley Pest Control LLC,,,,,39.2779764,-79.5265474
Mosquito Shield of Appleton and the Fox Valley,,,,,44.0848505,-88.6028589
Alpha and Omega Pest Control,121 NW Renfro St,Burleson,Texas,76028,32.5432398,-97.3256502
Green Armour Services,,,,,27.698638,-83.804601
Integrity Pest Solutions,,,,,37.751397,-93.8955746
Crain Pest Control,110 W Green St,Clinton,Missouri,64735,38.3719437,-93.7768646
Northern Pest,6776 32nd Rd,Rapid River,Michigan,49878,46.001977,-87.023416
Clean Kill Pest Control,781 US-2,Florence,Wisconsin,54121,45.8756719,-88.0951556
"Albemarle Termite & Pest Control , Inc",104 Tarheel Ct,Elizabeth City,North Carolina,27909,36.2736152,-76.2807792
Sentry Exterminating Co,30913 US-64,Jamesville,North Carolina,27846,35.81446,-76.8390764
Northeastern Exterminating Pest Control,3711 23rd St,Astoria,New York,11101,40.7573389,-73.9362361
Hernandez Exterminating,32-07 Astoria Blvd N,Astoria,New York,11102,40.7704465,-73.91608
Eco Earth Bed Bug Dogs,590 Madison Ave 18th Floor,New York,New York,10022,40.7621174,-73.9729266
Calm Pest Control,88 Chambers St FRNT 101,New York,New York,10007,40.7144564,-74.0073516
Patriot Environmental,820 E Beale St,Kingman,Arizona,86401,35.1875488,-114.0446205
Eco Pest Solutions,509 Overhill Dr,Hendersonville,North Carolina,28792,35.3837077,-82.478639
"GRIZZ PEST MANAGEMENT, Inc - Commercial & Residential",,,,,41.6779291,-87.6874015
Central Vermont Pest Control LLC,1900 US-2,Marshfield,Vermont,5658,44.3507624,-72.3584585
Romex Pest and Weed Control,455 W Center St,La Verkin,Utah,84745,37.2011134,-113.2806882
Tran Pest Control,562-586 Avenue A,Bayonne,New Jersey,7002,40.6679922,-74.1238812
Ohio Valley Pest Control LLC,,,,,39.4627935,-81.5975747
THE PEST CONTROL COMPANY,2709 S 58th Ct,Cicero,Illinois,60804,41.8413854,-87.769491
Knox Pest Control,507 N Main St,Enterprise,Alabama,36330,31.3187239,-85.8576133
Lawrence Termite & Pest Control,1222 Mine St,Nashville,Arkansas,71852,33.9587824,-93.8351168
Duke Pest Services Inc,350 Co Rd 266,Enterprise,Alabama,36330,31.3934791,-85.8893057
Advanced Pest Services LLC,,,,,40.073132,-74.724323
Mosquito Squad of Charlottesville,,,,,37.98867,-78.2311878
OL Keep It Green Lawn Care Services Inc,,,,,26.0398425,-80.175569
Longs Pest Control,,,,,43.259387,-122.9576236
Metrick Pest Control,150 Granby Cir,Beaver,West Virginia,25813,37.7461488,-81.1262003
"Bug-U Pest Control LLC - Upstate, NY",162 Main St,Hudson Falls,New York,12839,43.3016113,-73.585843
"Bug-U Pest Control LLC - Upstate, NY",162 Main St,Hudson Falls,New York,12839,43.3016113,-73.585843
Mosquito Hero,,,,,42.7114835,-78.4011901
"Arsenal Pest Management, Inc.",101 Hooper Ln,Mills River,North Carolina,28759,35.3810621,-82.5486169
Superior Pest Solutions,3415 W Fullerton Ave,Chicago,Illinois,60647,41.9245062,-87.7127832
"Logan Square Pest Control, Inc.",3935 W Fullerton Ave,Chicago,Illinois,60647,41.9242306,-87.7257079
Olson's Pest Technicians,,,,,44.7186595,-97.4946461
"Reynolds Pest Management, Inc.",1572 SE South Niemeyer Cir,Port St. Lucie,Florida,34952,27.3037577,-80.3041771
"Mosquito Authority Tupelo, MS",,,,,34.2590826,-88.759516
Orkin,2001 McCullough Blvd,Tupelo,Mississippi,38801,34.2894698,-88.7475003
Harvard Pest Control,,Tupelo,Mississippi,38804,34.2576066,-88.7033859
Squash Exterminating Manhattan,88 Pine St Suite 503,New York,New York,10005,40.7056685,-74.0060959
Green Scorpion Termite & Pest,,,,,32.4360804,-111.0375474
Western Pest Services,483 10th Ave Suite 100,New York,New York,10018,40.7565484,-73.9982781
"Empire Pest Management, LLC",339 S May Ave,Yuma,Arizona,85364,32.7214713,-114.6584177
Nielsen's Lawn Care and Pest control LLC,15 Main St,Eureka,Utah,84628,39.9556269,-112.1143463
Hearts Pest Management Marina Del Rey,,,,,33.9731464,-118.6203282
Southern Exterminators,,Hopkinsville,Kentucky,42240,36.8656008,-87.4886186
Orkin,819 Cowan Rd STE E,Burlingame,California,94010,37.6023604,-122.374273
Southern Exterminators of Cadiz,117 Lafayette St,Cadiz,Kentucky,42211,36.866995,-87.8336096
DMV Wildlife & Pest Solutions LLC,,,,,39.0625164,-76.5992101
Mosquito Squad of Northwest Wisconsin,,,,,45.273778,-91.420169
Critter Control of Gainesville,,,,,29.5922148,-82.41109
Mosquito Squad of Northeast Minnesota,,,,,47.5571605,-92.543125
Lloyd Pest & Termite Control,223 S Bent Ave,San Marcos,California,92078,33.1357038,-117.1813208
Palmetto Bug Company,,,,,32.1951011,-80.833959
Spraypro Lawncare,13131 SW 122nd Ave,Miami,Florida,33186,25.6463344,-80.3900172
SunBright Services,,,,,28.3696495,-81.7077725
Boogeyman Wildlife Control LLC,,,,,42.5617775,-85.0499534
Kingdom Pest Solutions,,,,,37.380519,-84.188939
PEST CONTROL SERVICES,,,,,29.694183,-98.3162136
Stateline Pest Control Inc.,5 Renwood Ct,New City,New York,10956,41.1382903,-73.9856589
Mosquito Joe of Baytown-Beaumont,1395 Texas Ave Suite D4,Bridge City,Texas,77611,30.0299327,-93.8373624
Orkin,4 Westview Rd,Pittsfield,Massachusetts,1201,42.4305697,-73.2933645
Moxie Lawn & Pest Control,735 Wendy Street,Pocatello,Idaho,83202,42.9297898,-112.4822208
Westwind Pest Prevention LLC,,,,,33.485838,-112.3923814
Steve's Pest Control,190 Greenway Dr,Holts Summit,Missouri,65043,38.6580678,-92.1226372
Magnum Pest Control,,,,,32.67853,-83.1940624
Yates-Astro Termite & Pest Control Hinesville,610 E Oglethorpe Hwy,Hinesville,Georgia,31310,31.8509633,-81.5852288
Arizona Bat and Bird Solutions,,,,,34.6873061,-112.136485
Mosquito Authority,,,,,64.296042,-147.6567389
American Pest Management,600 University Ave Suite 3B,Fairbanks,Alaska,99701,64.8473408,-147.8138629
Mr. D's Pest Solutions,1001 College Rd Unit A,Fairbanks,Alaska,99701,64.8591158,-147.7309133
Mosquito Squad of Berkshire County,,,,,42.391326,-73.1603035
Pest Defense,,,,,41.9120455,-104.5362695
Terminix,731 N Mckinley St,Casper,Wyoming,82601,42.8578127,-106.3119474
Alpha Wildlife Knoxville,200 Prosperity Dr,Knoxville,Tennessee,37923,35.922146,-84.076826
Critter Control of Southern Utah,,,,,38.4070599,-111.551825
Barnes Exterminating and Pest Control Company,105 Industrial Rd # 3,Gray,Tennessee,37615,36.4081288,-82.4682237
Red Dirt Pest Control,2944 Amy Lynn Ln,Duncan,Oklahoma,73533,34.5090916,-97.9854157
Guardian Exterminating Company,1037 KY-698,Stanford,Kentucky,40484,37.4942825,-84.6607715
Home Paramount Pest Control,17813 Virginia Ave,Hagerstown,Maryland,21740,39.6230376,-77.7498236
Mosquito Shield of North Central Wisconsin,,,,,45.8087226,-89.548175
Orkin,1020 County Line Rd,Sikeston,Missouri,63801,36.8692565,-89.5498674
Orkin,3212 Van Ave,Jonesboro,Arkansas,72401,35.8307505,-90.6659948
Hyde's Termite & Pest,723 S Church St,Jonesboro,Arkansas,72401,35.8363818,-90.7042518
Acme Pest Management,,Osceola,Arkansas,72370,35.7028603,-89.9700561
Aztec Pest Control LLC,402 W Market St,Dyersburg,Tennessee,38024,36.032477,-89.389255
Wildlife Removal Jonesboro,202 Co Rd 673,Jonesboro,Arkansas,72401,35.8190457,-90.5355049
Acme Pest Management,N 3rd St,Paragould,Arkansas,72450,36.0614017,-90.4885245
Tapout Termite & Pest Control,342 St Pauls Ave,Jersey City,New Jersey,7306,40.738791,-74.067231
Pests B Gone,,,,,44.879956,-93.3614526
Orkin,6612 Chancellor Dr Ste 300,Cedar Falls,Iowa,50613,42.4782632,-92.4536929
Bugsy's Pest Solutions,1949 Lafayette St,Waterloo,Iowa,50703,42.4909677,-92.3161404
Presto-X Pest Control,1410 Industrial Ave Suite 200,Hiawatha,Iowa,52233,42.051854,-91.680784
Martin Exterminating Company,2357 Eaton Ferry Rd,Littleton,North Carolina,27850,36.5314022,-77.9452868
A High Desert Pest & Weed,1750 E Cornville Rd,Rimrock,Arizona,86335,34.648992,-111.8229302
Waynes Pest Control,1604 Avalon Dr,Cottondale,Alabama,35453,33.1939953,-87.4668391
Wildlife Removal St. Louis,7901 Michigan Ave,St. Louis,Missouri,63111,38.5469827,-90.2639874
Best pest Control,311 Cherry St,New York,New York,10002,40.7113201,-73.9872499
Western Pest Services,,Newton,New Jersey,7860,41.0581527,-74.7526651
Pointe Pest Control,2302 Appleside Blvd,Clarkston,Washington,99403,46.395985,-117.0834679
Orkin,2710 Diers Ave,Grand Island,Nebraska,68803,40.9499597,-98.3852322
Leo's Exterminating Co Inc,102 N Main Ave,Erwin,Tennessee,37650,36.1452319,-82.4164818
Center Termite Control Inc,10910 Long Beach Blvd,Lynwood,California,90262,33.9339038,-118.2120597
Clegg’s Termite & Pest Control - Fayetteville,500 S Eastern Blvd,Fayetteville,North Carolina,28301,35.041784,-78.8668072
Dewey Pest & Termite Control,3090 E Foothill Blvd,Pasadena,California,91107,34.1498448,-118.0865644
Mickler's Pest & Lawn Services,11341 Distribution Ave E,Jacksonville,Florida,32256,30.1633604,-81.528486
Home Paramount Pest Control Co,,Elkton,Maryland,21921,39.6067789,-75.8332718
Abracadabra Pest Solutions,310 Curtis Ave,Elkton,Maryland,21921,39.6049136,-75.8409566
Canal Town Pest Solutions,109 N Bridge St,Elkton,Maryland,21921,39.6073561,-75.8339217
"Pride Mosquito Control, LLC",15 Sachem Dr,Mastic,New York,11950,40.8172828,-72.8601558
Door County Pest Control Inc.,1312 Shiloh Rd,Sturgeon Bay,Wisconsin,54235,44.8110199,-87.3766672
Erdye's Pest Control LLC,1600 Shawano Ave # 112,Green Bay,Wisconsin,54303,44.5305678,-88.0604193
"Oregon Gopher, LLC",3269 Zena Rd NW,Salem,Oregon,97304,45.018393,-123.098896
Valley Pest Control LLC,3583 Cherry Ave NE,Keizer,Oregon,97303,44.9780748,-123.0230333
Kendrick Pest Control,1045 1st St,La Salle,Illinois,61301,41.32889,-89.0903739
East Lee Lawn Care Inc.,,,,,42.3929025,-73.2284095
Atlas Termite & Pest Control,3301 Deskin Dr,Norman,Oklahoma,73069,35.2585575,-97.4651241
Bugged Out Pest Control,RV44+8W,St Robert,Missouri,65584,37.8058125,-92.1426875
Mosquito Squad of Rhode Island,,,,,41.6014501,-71.5577064
Terminix,105 Ponderosa Wy,Hot Springs Village,Arkansas,71909,34.6523138,-92.98413
Bug Doctor,1572 US-27,Avon Park,Florida,33825,27.615065,-81.5140198
Olson's Pest Technicians,,,,,42.2387885,-98.0364154
Wildlife Trapper Pro,449 Troutman St,Brooklyn,New York,11237,40.7082529,-73.9215183
M&M Bedbug Inspectors,372 5th Ave #9F,New York,New York,10018,40.749501,-73.98428
Go-Forth Pest Control,1722 Gillespie St,Fayetteville,North Carolina,28306,35.0270415,-78.8926794
Mosquito Squad of Lancaster,,,,,40.05567,-76.339748
"GreenHow, Inc",225 Riverview Ave # B3,Auburndale,Massachusetts,2466,42.3577567,-71.2442095
Erdye's Pest Control LLC,911 Jackson St STE 207,Wausau,Wisconsin,54403,44.9572275,-89.6161888
EcoPest Protect,1260 Hwy 278 Hwy,Camden,Arkansas,71701,33.5719194,-92.853493
Fly By Night Bat Removal Specialist,661 N Nelson St,Grantsburg,Wisconsin,54840,45.793869,-92.685979
Knox Pest Control,595 Dekalb St,Auburn,Alabama,36830,32.6168557,-85.4666973
Vector Stomp,211 N California St,Sycamore,Illinois,60178,41.990556,-88.688263
Select Exterminating,121 W 27th St #502,New York,New York,10010,40.7460627,-73.9919558
Wise Pest & Property Solutions,75 Mendenhall Rd,Benton,Pennsylvania,17814,41.228143,-76.40799
SafeYard Mosquito Control,303 Liberty Ln,Horace,North Dakota,58047,46.7533997,-96.9071236
DeAngelo Pest Control,100 N Conahan Dr,Hazleton,Pennsylvania,18201,40.9382374,-75.9784354
Terminix,1868 Hartog Dr,San Jose,California,95112,37.3810732,-121.9087823
Olson's Pest Technicians,,,,,45.537663,-98.303104
Smith's Gopher Trapping Service & Complete Pest Management,1931 O'Toole Way,San Jose,California,95131,37.385094,-121.906706
Friendly Pest Control,,,,,34.3402885,-110.6402355
MightyMite Termite Services,215 E Hacienda Ave,Campbell,California,95008,37.2683918,-121.9537703
Black Diamond Lawn & Tree Care,21228 N Pease Hill Rd,Colbert,Washington,99005,47.8510411,-117.4559781
"A-Altair Termite & Pest Control, Inc",119 Oak St,Waterford Works,New Jersey,8089,39.7244674,-74.8518448
Topher Environmental Services...Topher Pest Control...Topher's Gophers Junk Removal,,,,,39.3468519,-107.475464
"Champion Termite and Pest Control, Inc.",818 Husson Ave,Palatka,Florida,32177,29.6418167,-81.6539683
The Bug Man,108 W Paris Ave,West Terre Haute,Indiana,47885,39.4695578,-87.445643
Willington Termite & Pest Control,381 Tolland Turnpike,Willington,Connecticut,6279,41.8735973,-72.2386575
"Green Smart Pest Control, LLC",,Willington,Connecticut,,41.8809434,-72.2600655
"E & R Exterminating Company, Inc.",15234 Warwick Blvd,Newport News,Virginia,23608,37.1449021,-76.5487843
Orkin,130 11th St SW,Hickory,North Carolina,28602,35.729628,-81.3573402
Go-Forth Pest Control,161 Lenoir Rhyne Blvd SE,Hickory,North Carolina,28602,35.7287626,-81.3243408
Mosquito Joe of Baton Rouge,,,,,30.3915415,-91.0621369
Hudson Valley Wildlife Solutions,,,,,42.418475,-74.02276
Advance Pest Solutions Inc.,132-26 157th St,Jamaica,New York,11434,40.67242,-73.780768
"Eagle Eye Pest Control LLC - Pest Control Upper Marlboro MD, Exterminator",,,,,38.8196624,-76.755732
Western Pest Services,RR 9,Cape May Court House,New Jersey,8210,39.1231273,-74.8039205
Mosquito Abatement District,,Gardnerville,Nevada,89410,38.9412959,-119.7496216
SWAT Pest Control & Termite Services of Marietta,1990 Lower Roswell Rd,Marietta,Georgia,30068,33.9502477,-84.4948662
All-Pro Pest & Weed Control Services,6562 Caliente Rd Suite 101 PMB 105,Oak Hills,California,92344,34.3700894,-117.4273936
Elevate Pest Control,60 W 1000 N,Logan,Utah,84321,41.749741,-111.836074
https://aardvark-pestcontrol-rapidcity.com/,309 Walnut St,Piedmont,South Dakota,57769,44.231304,-103.3919363
Ambient Pest Control,150 E 200 N Suite O,Logan,Utah,84321,41.7347111,-111.8311009
Black Hills Pest Control,3612 Jose Dr,Sturgis,South Dakota,57785,44.4263552,-103.5471407
Mosquito Shield of North Attleboro,428 Towne St,North Attleborough,Massachusetts,2760,41.9757994,-71.3044536
EnviroPest | Ithaca Pest Control,,,,,42.9709682,-76.4856115
Custom Pest Control,10062 AL-168,Boaz,Alabama,35957,34.1981328,-86.1662373
Cook's Pest Control,175 AL-75,Albertville,Alabama,35951,34.2782653,-86.2028639
Defend Pest & Lawn,1665 N 500 W,Malad City,Idaho,83252,42.2101858,-112.2573069
Mosquito Authority,,,,,37.99305,-76.897658
Cline Termite & Pest Control,440 Rolling Meadows Rd,Waynesburg,Pennsylvania,15370,39.8902145,-80.1456436
Cline Termite & Pest Control,440 Rolling Meadows Rd,Waynesburg,Pennsylvania,15370,39.8902145,-80.1456436
Exclusive Gopher & Pest Control,,,,,34.032332,-119.1026885
Orkin,291 Industrial Dr,Roanoke,Virginia,24019,37.3556815,-79.9229079
Eagle Pest Control & Tree Service : Pest Control,41615 Kalifornsky Beach Rd,Kenai,Alaska,99611,60.5120141,-151.1766501
Mosquito Authority of Anchorage,,,,,60.3380305,-148.3557845
Alford Pest Control,6316 MacCorkle Ave SW Unit A,St Albans,West Virginia,25177,38.3679847,-81.7648679
Orkin,108 Craddock Way Ste 11,Poca,West Virginia,25159,38.4545032,-81.8199636
Eagle Pest Control & Tree Service,,,,,61.307439,-158.813174
Pied Piper Pest Control,2440 E 88th Ave suite a,Anchorage,Alaska,99507,61.1407912,-149.8365318
Bug-U Pest Control LLC,1069 US-9,Schroon Lake,New York,12870,43.835773,-73.7622489
Bug-U Pest Control LLC,1069 US-9,Schroon Lake,New York,12870,43.835773,-73.7622489
Meerkat Pest Control,634 Plank Rd,Clifton Park,New York,12065,42.8667091,-73.7779681
"Orange Blossom Outdoor Pest & Lawn Spray, LLC","117-B, Broadway",Kissimmee,Florida,34741,28.2931915,-81.4067888
Plunkett's Pest Control,1129 Hayes Dr,Manhattan,Kansas,66502,39.1919405,-96.5554664
Phoenix Pest & Termite Control,5630 AZ-95 #9,Fort Mohave,Arizona,86426,34.9933949,-114.5975539
Arrow Pest Control Inc,708 W Jefferson Ave,Effingham,Illinois,62401,39.122342,-88.550957
Terminix,2205 Marshall Ave,Mattoon,Illinois,61938,39.4776019,-88.3819661
Ameri Care Services,526 S Walnut St,Murfreesboro,Tennessee,37129,35.840983,-86.3950895
Guardian Pest Solutions,,,,,48.2383426,-101.2671456
Orkin,3319 Hamilton St O,Bismarck,North Dakota,58503,46.8428136,-100.7403086
ThurO Pest Management,,,,,40.240066,-75.5996939
ProGreene Lawn and Pest Services,,,,,34.8499376,-82.454848
The Gopher Guys,,,,,36.8474005,-121.401078
Creepy Crawlers Pest Solutions,,,,,33.2855184,-90.427083
Badbugs! Pest Control,520 W Aten Rd,Imperial,California,92251,32.8264313,-115.5826332
J Douglass Wildlife Handyman LLC,6585 Clermont Hwy,Clermont,Georgia,30527,34.4806415,-83.7964731
Appalachian Pest Control,200 Jake St,Barboursville,West Virginia,25504,38.4117523,-82.3004808
HIVE Pest Defense,4249 S 3200 W,Spanish Fork,Utah,84660,40.1537607,-111.729638
Rogue Pest Solutions - Gadsden,111 St Thomas Dr,Rainbow City,Alabama,35906,33.9509936,-86.0733879
Easy Green Services,2501 SW 57th Ave Unit 404,Ocala,Florida,34474,29.1638962,-82.2130339
Precision Pest Control,1821 Broadway St Suite D,Rockport,Texas,78382,28.0464512,-97.0349077
Massey Services Pest Control,630 Woodbury Dr Ste B,Port Charlotte,Florida,33954,27.0155306,-82.145567
Superior Termite & Pest Control,6225 AR-18,Jonesboro,Arkansas,72401,35.8230277,-90.5329089
Bug Zapper Pest Control,,,,,43.1390739,-124.127222
Black Diamond Pest Control,,,,,37.701346,-85.371545
T & R Weed & Pest Control llc,22 County Road 1956,Farmington,New Mexico,87401,36.787472,-108.2195459
PestTechs Pest and Weed Control,6161 E Main St,Farmington,New Mexico,87402,36.7752249,-108.1302903
Kopex Pest Control,4986 Wetland Crossing Rd 1 1320,North Charleston,South Carolina,29418,32.8774767,-80.0247604
Paul's AAA Pest Control,,,,,41.938318,-93.3897729
VPM Pest Solutions Inc,1721 Huntington St,Lakeland,Florida,33801,28.0265517,-81.929632
Orkin,9410 Prototype Dr Ste. 18,Reno,Nevada,89521,39.4462578,-119.7615141
Premier Lawn and Pest Control,734 S Combee Rd,Lakeland,Florida,33801,28.0350881,-81.9072033
Integrity Pest Management,4240 Reno Hwy,Fallon,Nevada,89406,39.48596,-118.84248
A&C Pest Control,500 Ironwood Rd,Reno,Nevada,89510,39.765498,-119.642432
Progressive Pest Management and Weed Control,911 Linda Way Suite 106,Sparks,Nevada,89431,39.5244082,-119.7484642
HiLow Services,9410 Prototype Dr Unit 6,Reno,Nevada,89521,39.4462578,-119.7615141
BugPro Pest Solutions,,,,,39.3256624,-119.375304
Clearfield County Exterminating,124 Martha Park Rd,Clearfield,Pennsylvania,16830,40.96816,-78.123615
"Pest Barrier Pros, LLC",5461 Sun Valley Blvd,Sun Valley,Nevada,89433,39.5907522,-119.7813391
Specialty Exterminating Co,5086 S Amherst Hwy,Madison Heights,Virginia,24572,37.4321051,-79.1233737
Suncoast Pest Control,5436 Main St,New Port Richey,Florida,34652,28.2498907,-82.7238336
"Hobbs Pest Control, Termites, Weeds, Gophers",1121 W State Hwy 152 Suite 105,Mustang,Oklahoma,73064,35.3927783,-97.7486318
Ehrlich Pest Control,220 W Kensinger Dr Suite 500,Cranberry Township,Pennsylvania,16066,40.7096046,-80.1183334
Plunkett's Pest Control,139 Williamson Rd,Greenville,Pennsylvania,16125,41.422368,-80.369476
"Bucklin Services, LLC",,,,,40.9423662,-96.3228803
Mosquito Squad of Wilmington & The Crystal Coast,3525 Carolina Beach Rd,Wilmington,North Carolina,28412,34.1827204,-77.9288916
Truly Nolen Pest & Termite Control,6594 E 2nd St suite d,Prescott Valley,Arizona,86314,34.5807753,-112.3500296
Orkin,8230 E Pecos Dr,Prescott Valley,Arizona,86314,34.6271327,-112.3203958
All About Wildlife Control LLC,,,,,34.521846,-82.6451865
Black Diamond Pest Control,610 1st St,Worthington,Kentucky,41183,38.5509501,-82.7392447
Hollen's Lawn & Pest Control,,,,,34.598659,-99.4408395
Medlock Lawn Spraying & Pest Control,20356 E County Rd 159,Altus,Oklahoma,73521,34.706986,-99.342625
ZeroBug Pest Control,407 Magnolia Ave,Auburndale,Florida,33823,28.0586111,-81.7879411
Bluegrass Pest Management,424 E Main St,Hazard,Kentucky,41701,37.2465945,-83.1850469
"Pest, Lawn & Plow LLC",261 131st Ave,Wayland,Michigan,49348,42.645264,-85.5685121
Halo Pest Elimination,,,,,40.7276054,-117.150166
Mosquito Squad of the OBX,8845 Caratoke Hwy,Point Harbor,North Carolina,27964,36.0944999,-75.8089998
Tri-County Pest Control,10928 Old Hwy 9,Belden,Mississippi,38826,34.332458,-88.869664
Gold Bond Pest Control LLC,1704 E Shiloh Rd,Corinth,Mississippi,38834,34.9450995,-88.5050202
Penn Pest Control & Lawn Maintenance Inc,,,,,25.454269,-80.432103
Anderson Wildlife Solutions,,,,,38.2046699,-98.6112415
Aim Pest Control,2006 12th Ave NW,Ardmore,Oklahoma,73401,34.1872265,-97.1544067
Orkin,1053 Crenshaw Blvd,Los Angeles,California,90019,34.0533854,-118.3240691
Harvey's Pest Control,4239 Edgehill Dr,Los Angeles,California,90008,34.007197,-118.3307131
ALL STAR ANIMAL TRAPPING,15841 Wyandotte St,Van Nuys,California,91406,34.20331,-118.478419
"Green Side Up, LLC",712 Railroad Ave,Portland,Texas,78374,27.8757884,-97.3214581
"Stoner Pest Control, LLC",N Main St,Lewistown,Pennsylvania,17044,40.5986752,-77.5813184
Orange Pest Control,580 Cox Rd,Cocoa,Florida,32926,28.3650204,-80.7884167
Hughes Exterminators,15534 US-301,Dade City,Florida,33523,28.3845752,-82.1929189
ORGREENX,6915 Manatee Ave W H-15,Bradenton,Florida,34209,27.4952838,-82.6313866
ProShield Termite & Pest Control,7260 B Theodore Dawes Rd,Theodore,Alabama,36582,30.5622126,-88.2122101
"Earlywine Pest Control, Inc.",2234 Boston Pike,Richmond,Indiana,47374,39.7989665,-84.8868573
Mosquito & PEST Authority of the Lakelands,108 N Main St,Ninety Six,South Carolina,29666,34.1754881,-82.0241389
Bob Thomas Pest Control,1101 Burns St,Latrobe,Pennsylvania,15650,40.3177335,-79.3703383
Alley Cat - Rodent Exclusion Company,1390 Market St #200,San Francisco,California,94102,37.7771959,-122.4173361
Maine Wildlife Management,,,,,45.1884795,-68.9846859
Above All Weed & Pest Control LLC,,,,,36.6091099,-90.7384385
CritterClear Haven,2015 US-385,Andrews,Texas,79714,32.34527,-102.5558883
H & H Pest Control Services Inc,,Newton,North Carolina,28658,35.6698552,-81.2214708
Brown Pest Solutions,1210 NW 14th St,Andrews,Texas,79714,32.3281905,-102.5675883
A Bug's Life Pest Management Inc.,2260 Bengal Ct,Punta Gorda,Florida,33983,26.995713,-82.014995
Mite-E Exterminating,38772 W Red Arrow Hwy,Paw Paw,Michigan,49079,42.2138591,-85.9249846
Mosquito Squad of Bangor-Auburn,,,,,44.626313,-69.3439635
Knight Pest Control,717 SW 15th St,Richmond,Indiana,47374,39.8192846,-84.9231796
Gladhill Services,,,,,39.8578528,-78.667076
One Call Pest and Lawn Services,,,,,27.992063,-82.406824
Pest Authority - Sioux Falls,,,,,44.3581374,-97.4814684
Plunkett's Pest Control,,,,,43.404006,-96.325635
Orkin,611 Shiloh Dr STE 10,Laredo,Texas,78045,27.5907641,-99.4798523
Guardian Pest Control,4103 Campeche Dr,Laredo,Texas,78046,27.4795193,-99.4481377
Target Pest Control,1802 S Meadow St,Laredo,Texas,78046,27.4811867,-99.4750513
NRG Exterminating,,,,,38.1644134,-80.7999915
Orkin,6105 7th St SW,Cedar Rapids,Iowa,52404,41.9188914,-91.6774176
Orkin,701 GA-133,Moultrie,Georgia,31788,31.1661102,-83.7419405
Prime Pest and Lawn - Las Cruces,2260 E Lohman Ave #1073,Las Cruces,New Mexico,88001,32.3110807,-106.7517534
"Bonnie & Clyde Pest Control, LLC",,,,,47.7193685,-103.943272
Stark Exterminators,5895 US-1,Vero Beach,Florida,32967,27.7004424,-80.4162604
YES Pest Pros,1500 W Bloomfield Rd,Bloomington,Indiana,47403,39.1580134,-86.5583379
Aardvark Pest & Weed Control,,,,,46.3994512,-116.9882285
Buckeye Pest Management,210 W Main St,St Clairsville,Ohio,43950,40.0793132,-80.9056683
Dodson Pest Control,10 Armory Rd,Clarksburg,West Virginia,26301,39.2659161,-80.3638155
Professional Pest Solutions,,,,,38.9201704,-80.182055
Orkin,2715 Buckhannon Pike,Mt Clare,West Virginia,26408,39.241102,-80.313173
Northwest Exterminating - Smyrna,1740 Corn Rd,Smyrna,Georgia,30080,33.8798745,-84.5043649
Terminix,68 Darin Dr,Augusta,Maine,4330,44.3490959,-69.8011044
Leitchfield Exterminating Inc,293 Quarry Rd,Leitchfield,Kentucky,42754,37.472341,-86.324359
"Dead End Exterminating, LLC",1101 E 1st Ave,Lenoir City,Tennessee,37771,35.7980572,-84.2572946
ohDEER Central MA,20 Union Ln,Whitinsville,Massachusetts,1588,42.1029204,-71.6440895
ABC Home & Commercial Services,9475 US-290,Austin,Texas,78724,30.3290625,-97.6329848
Mosquito Shield of Central MA,,,,,42.3648074,-71.8786524
Mosquito Shield of Rhode Island,,,,,41.5573165,-71.4979145
Insight Pest Solutions,1 Tara Blvd #200,Nashua,New Hampshire,3062,42.708496,-71.4548576
Nick's Pest Pro,,,,,38.38392,-122.357565
"Mantis Services, Inc.",1524 Smith St Ste #103,Orange Park,Florida,32073,30.1708643,-81.7035803
Heyday Pest Management,,,,,44.899654,-89.7700085
"Mosquito Authority - Wausau, WI",,,,,44.918682,-89.1499314
Guardian Pest Solutions,,,,,44.9627616,-89.670575
Massey Services Pest Control,1869 FL-44,New Smyrna Beach,Florida,32168,29.014284,-80.9446336
Servall Termite & Pest Control,939 KY-121,Murray,Kentucky,42071,36.6220105,-88.3319496
Servall Termite & Pest Control,939 KY-121,Murray,Kentucky,42071,36.6220105,-88.3319496
EcoGuard Pest Management - Sacramento,,,,,38.3937256,-121.671314
Landscape Spray Solutions,,,,,26.2872521,-80.1742265
Griggs & Browne Co Inc,152 Cross Rd,Waterford,Connecticut,6385,41.3798272,-72.1609653
Flash Exterminating - Brooklyn 11206,310 Montgomery St,Brooklyn,New York,11225,40.6653872,-73.9544352
Columbia Basin Spray Service,,,,,47.1382594,-119.2711725
Orkin,1 Wildwood Dr,Parkersburg,West Virginia,26101,39.2462368,-81.5894942
City Termite & Pest Control,1525 W Moline St,Malvern,Arkansas,72104,34.3768674,-92.8304053
Prime Pest and Lawn - Tucson,3434 E Kleindale Rd Suite O,Tucson,Arizona,85716,32.268425,-110.9190566
Crawford Pest Management LLC,2908 W 93rd St S,Oktaha,Oklahoma,74450,35.6254649,-95.3973924
Great Plains Termite & Pest Control,19661 E 1090 Rd,Elk City,Oklahoma,73644,35.4375986,-99.4772876
Arrow Pest & Lawn Solutions,,,,,28.0309706,-97.8641211
Arrow Exterminators,5655 W Andrew Johnson Hwy,Morristown,Tennessee,37814,36.1797387,-83.3868712
Pacific Termite And Pest Control,140 Holomua St,Hilo,Hawaii,96720,19.7018883,-155.0663902
Veteran Termite & Pest Control,140 B Holomua St,Hilo,Hawaii,96720,19.7019756,-155.0664093
Bug Busters Pest Control,RR 1 Box 287,Salem,Missouri,65560,37.6455993,-91.5359808
Mosquito Authority,,,,,41.0148471,-81.4081965
Clint Miller Exterminating Inc,8655 E Franklin St,Mt Pleasant,North Carolina,28124,35.397734,-80.4316367
Blue Grass Pest Management,444 N McWhorter St,London,Kentucky,40741,37.1368415,-84.0628816
"Forbes Pest Control, LLC",433 Whitmore Ave,Mayfield,Pennsylvania,18433,41.5393922,-75.5431589
Good Life Pest Solutions,3720 Madison Ave Ste 275,North Highlands,California,95660,38.6605093,-121.3772925
"D-Bug Pest Control, Inc.",2001 Bedford St Suite A,Johnstown,Pennsylvania,15904,40.3003803,-78.8843344
City Pest Control,5099 Pinch Hwy,Potterville,Michigan,48876,42.6546236,-84.7367264
Killeen Pest Control Lawn Care,Killeen Pest Control Lawn Care,Killeen,Texas,76541,31.1168297,-97.725376
Croach Pest Control,8221 44th Ave W,Mukilteo,Washington,98275,47.9235658,-122.2925796
Mosquito Squad of South Jersey,,,,,39.7418741,-75.1050295
Orkin,21151 LA-36,Covington,Louisiana,70433,30.4830426,-90.0533926
Orkin,9706 W Nicholas Ave,Visalia,California,93291,36.3368574,-119.3992887
Conquest Pest Control,5672 W Millbrae Ave,Fresno,California,93722,36.8362718,-119.8932513
VaMoose Varmint Wildlife Removal,,,,,44.6345026,-84.7828894
AntEco Pest Control,11086 W Shore Dr,Houghton Lake,Michigan,48629,44.3662832,-84.7936995
ONeill Pest Control,211 8th St,Conway Springs,Kansas,67031,37.3923041,-97.6447875
"Hogarth's Pest Control, Wildlife & Animal Removal",10283 Elk Lake Rd,Williamsburg,Michigan,49690,44.8351548,-85.4055945
Kodiak Pest Control,306 N Bent St,Powell,Wyoming,82435,44.755709,-108.757835
Nepa Pest Control LLC,836 N Irving Ave,Scranton,Pennsylvania,18510,41.4093058,-75.6445161
Prime Pest and Lawn,105 W Chaco St,Aztec,New Mexico,87410,36.8225959,-107.9953096
Action Now Pest Control & Duct Cleaning,9615 Fort Laurens Rd NW,Bolivar,Ohio,44612,40.616728,-81.478552
Ecor Lawn Spray & Pest Control,2840 Electronics Dr,Melbourne,Florida,32935,28.1396987,-80.6698848
A Do It Yourself Pest Control Store,1214 Asheville Hwy,Spartanburg,South Carolina,29303,34.9735584,-81.9570686
TP3 Pest Management,1242 Clay St,Ashland,Nebraska,68003,41.0422702,-96.3669652
High Desert Pest Solutions,,,,,44.171261,-121.1930075
Orkin,44 Buck Shoals Rd Ste 906,Arden,North Carolina,28704,35.4612991,-82.5154127
Southern Creek Services,36258 W 301st St S,Bristow,Oklahoma,74010,35.726194,-96.3979292
Mr.T's Pest Control,,,,,21.9454284,-159.921351
Orkin,1401 SE 1st St,Lawton,Oklahoma,73501,34.5930378,-98.3855106
Massey Services Pest Control,2504 S Alafaya Trail #100,Orlando,Florida,32828,28.5192391,-81.1888352
Environmental Pest Control,2015 SW D Ave,Lawton,Oklahoma,73501,34.6043146,-98.4190725
CenTex Pest Patrol,,,,,31.132961,-97.4905645
Massey Services Pest Control,5150 Palm Vly Rd #407,Ponte Vedra Beach,Florida,32082,30.18716,-81.387205
Plunkett's Pest Control,,,,,45.9842051,-91.471077
Guardian Pest Solutions,,,,,46.005041,-91.5069804
Griffin Termite & Pest Control,5400 Jackson Rd,Griffin,Georgia,30223,33.2712618,-84.1318135
Mele Pest Control,703 S Main St,Henderson,Texas,75654,32.1470653,-94.7991475
Action Pest and Weed Management,184 G R Howard Rd,Loving,New Mexico,88256,32.2909637,-104.0686935
Mosquito Shield of Northwest Atlanta,320 Bell Park Dr Ste A 1,Woodstock,Georgia,30188,34.1255691,-84.510119
Pest Wardens,96 Stoneybrook Way,Hermon,Maine,4401,44.81734,-68.9444636
Orkin,257 Perry Rd Ste C,Bangor,Maine,4401,44.7844665,-68.7996598
"207 Pest Management, LLC",,,,,45.2120536,-68.6404224
Western Exterminator,3333 W Temple St,Los Angeles,California,90026,34.0762447,-118.2824147
Bed Bug Specialist Robbin's Pest Control,142 Las Flores Dr,Hemet,California,92544,33.7484851,-116.9379943
PestPractice Milford,406 Broad St,Milford,Pennsylvania,18337,41.3241749,-74.801384
Island Exterminating Inc.,,,,,40.925129,-72.7165136
Moxie Pest Control,2640 Corporate Pkwy,Algonquin,Illinois,60102,42.1485671,-88.343679
Orkin,2521 Petty Dr,Bowling Green,Kentucky,42103,36.9530447,-86.4213301
Ballard Pest Management,,,,,32.6234329,-85.8448754
Vineyard Tick and Mosquito,,,,,41.327971,-72.00619
Lamp Pestproof & Wildlife Control,905 Grand Central Ave Suite B,Vienna,West Virginia,26105,39.309248,-81.5531723
Redstone Pest Control,300 W Princeton Dr Ste 4-378,Princeton,Texas,75407,33.1750054,-96.5032684
Olson's Pest Technicians,,,,,41.5323844,-97.4424026
SafeSpray Pest Control,1319 Broad St,Phenix City,Alabama,36867,32.4719914,-85.0010292
Mosquito Squad Plus of West Michigan Lakeshore,,,,,42.891131,-85.992086
Trutech Wildlife Service,,,,,28.4702274,-81.417667
Focused Xtermination,,Sweeny,Texas,77480,29.0388615,-95.6985608
Twin Peaks Spray,,Challis,Idaho,83226,44.5047013,-114.2318583
Modern Pest Services,187 East St,South Hadley,Massachusetts,1075,42.2411556,-72.5576053
Mid America Pest Control,,,,,36.290972,-95.397604
George Termite And Pest Control,218 S Front St,Dardanelle,Arkansas,72834,35.2189459,-93.152645
Coastal Lawn and Pest,1421 Ceitus Terrace Ste 7,Cape Coral,Florida,33991,26.6421384,-82.0027996
Bat Evictors,302 Oak St,Strum,Wisconsin,54770,44.5530724,-91.3953108
Pest Control In Modesto,,,,,37.5203242,-120.8185982
Scott's Turf and Pest Services,,,,,36.0017056,-79.0747338
Critter Control of Central Missouri,,,,,39.127059,-93.3418764
J F Oakes Sales & Marketing,646 E Fifteenth St,Yazoo City,Mississippi,39194,32.8646383,-90.3965483
Eagle Pest Control & Tree Services,6850 Ord Ln,Wasilla,Alaska,99654,61.5445195,-149.6251333
Eagle Pest Control & Tree Service,,,,,61.3159132,-149.497469
Assured Environments,460 Ludlow Ave #3244,Cranford,New Jersey,7016,40.6527855,-74.2831092
Oklahoma Bed Bug Experts,14609 S Oak St,Glenpool,Oklahoma,74033,35.9522925,-95.9887444
BugBros Pest Control - Bixby,,,,,35.976504,-95.852143
Guardian Angel Exterminating,15038 S Grant St,Bixby,Oklahoma,74008,35.9457862,-95.8905877
Nature Guard Pest & Lawn- Arkansas,,,,,36.2445542,-94.297999
Orkin,235 Roselawn Ave E Ste 10,St Paul,Minnesota,55117,45.0003769,-93.0909964
"West Termite, Pest & Lawn",2320 W Shawnee St,Muskogee,Oklahoma,74401,35.7704259,-95.392605
Monmouth Termite & Pest Control,,Monmouth,Illinois,61462,40.9114271,-90.6473576
Bowman Termite & Pest Management,469 Kalanikoa St,Hilo,Hawaii,96720,19.7157589,-155.0654702
Orkin,67-1153 Mamalahoa Hwy,Waimea,Hawaii,96743,20.0219835,-155.6666461
Pest City USA,18665 M-102,Detroit,Michigan,48219,42.4438349,-83.2274794
Chemical Weed Control,301 1st St,Ozona,Texas,76943,30.7203465,-101.198739
"Sooner Lawn & Pest Control, Inc.",,,,,34.4848511,-98.1629565
"JMB Construction & Rodent Control - Glens Falls, NY",,,,,43.13266,-73.734543
Hunt Pest Control & Pro Lawn,50 N 200 E Unit D,Lehi,Utah,84043,40.388738,-111.8454709
Terminix,426 Butterfield Stagecoach Bypass,Pottsville,Arkansas,72858,35.2425598,-93.0370083
American Southern Exterminating,1212 W Main St,Clarksville,Arkansas,72830,35.471709,-93.47676
Service Pest Control,,,,,29.414213,-81.274046
Plank Termite and Pest Control LLC,1804 Soest Rd,Rolla,Missouri,65401,37.9432183,-91.7405213
Terminix,2002 N Shiloh Dr,Fayetteville,Arkansas,72704,36.0888276,-94.1948118
Pike Pest Control,29369 Auberry Rd Suite 103,Prather,California,93651,37.0389993,-119.5177268
Turf Tactics LLC,11141 County Line Rd #112,Spring Hill,Florida,34609,28.4348203,-82.5386037
Terminix Triad,4615 Pleasant Garden Rd,Pleasant Garden,North Carolina,27313,35.969533,-79.764565
Eco-Plus Pest Management Corp.,,,,,40.9758731,-73.1545546
Catchy Pest Control (Concourse),,,,,40.921559,-73.870776
Palm Pest and Lawn Services,,,,,28.4482814,-82.495151
REIGN PEST SERVICES,785 Sedgwick Rd,Waterford,Pennsylvania,16441,41.9397729,-80.0060096
Orkin,2619 S Main St,Bloomington,Illinois,61704,40.4428351,-88.9917215
General Pest Control,17520 Engle Lake Dr,Middleburg Heights,Ohio,44130,41.3786033,-81.8226924
Pest Authority,,,,,33.2934649,-87.5570395
Cook's Pest Control,3924 Palisades Dr,Tuscaloosa,Alabama,35405,33.1715851,-87.4978431
Leave Me Bee Pest Control Inc,,,,,41.765178,-88.206275
American Pest Control,,,,,34.478074,-82.5416786
Best Home & Property Services Inc.,7364 SC-90,Longs,South Carolina,29568,33.8561946,-78.8038217
Arrow Exterminators,105 US-80,Bloomingdale,Georgia,31302,32.1331689,-81.3029117
Fairway Lawns LLC,,,,,43.7533415,-114.4381714
Arrow Exterminators,915 Lovers Ln Ste A,Bowling Green,Kentucky,42103,36.9556082,-86.4160366
X-iT Pest and Wildlife Solutions,,,,,37.9528284,-84.418134
Pointe Pest Control,1016 Crescent St Unit A,Wenatchee,Washington,98801,47.4105885,-120.3018892
Natural State Pest Control,5008 S U St Suite 208,Fort Smith,Arkansas,72903,35.3603918,-94.3763103
Elite Pest & Termite Inc.,4502 Industrial Dr,Fort Smith,Arkansas,72916,35.3226318,-94.3847239
Harvest Valley Pest Control,636 Valley Mall Pkwy Suite 206,East Wenatchee,Washington,98802,47.4131879,-120.2930296
"Fenix Pest Control, Inc",N266 Stoney Brook Rd Suite C,Appleton,Wisconsin,54915,44.2498082,-88.3513391
Mosquito Squad of Northeast Wisconsin,,,,,44.764429,-88.137963
Arrow Exterminators,2692 Moore Station Rd,Dublin,Georgia,31021,32.5256131,-82.9526796
Orkin,1961 US-441,Dublin,Georgia,31021,32.5069165,-82.9248395
Omega Pest Control,1827 Lancaster Rd,Granville,Ohio,43023,40.0623112,-82.5193225
MTM Contracting Services LLC,2 5th St,McAdoo,Pennsylvania,18237,40.9019532,-76.0028088
Black Rock Services LLC,3722 Jake Dr,Cookeville,Tennessee,38501,36.1999772,-85.5827007
Orkin,890 W Jackson St,Cookeville,Tennessee,38501,36.1616251,-85.5252473
Midstate Termite & Pest Control,833 W Broad St,Cookeville,Tennessee,38501,36.1706843,-85.5257568
Seitz Bros.,83 Claremont Ave,Tamaqua,Pennsylvania,18252,40.8154683,-75.9789121
Safeway Exterminating,2380 N Main St suite b,Vidor,Texas,77662,30.1565828,-94.0166886
Frontier Pest Control,17318 432nd Ave SE,North Bend,Washington,98045,47.4435869,-121.7650086
Cyclone Pest Management,4786 Panorama Dr,Panora,Iowa,50216,41.7222129,-94.4001007
Orkin,450 S Spruce St Bldg 2 Ste L,Manteno,Illinois,60950,41.2444184,-87.8561264
Croach Pest Control,1404 Riverside Dr Ste G,Mount Vernon,Washington,98273,48.4329357,-122.3338771
PestEase Services,389 S Bells St,Alamo,Tennessee,38001,35.7796074,-89.1165472
GoodMonsters Pest Control,1911 E Division St B,Mount Vernon,Washington,98273,48.4213628,-122.317007
Classic Pest Control & Insulation,1404 Riverside Dr C,Mount Vernon,Washington,98273,48.4327667,-122.3339886
KEA PEST CONTROL,33 Nicholson Rd,East Granby,Connecticut,6026,41.9392473,-72.7118405
Gingrich Horticulture Service,1300 Galaxy Way STE 17,Concord,California,94520,37.9765171,-122.0502271
BGC Dryer Vent Cleaning & Termite Pest Control Services Inc Of FL,,Orange Park,Florida,32073,30.1660736,-81.706484
Orkin,,Orange Park,Florida,32073,30.1660736,-81.706484
Gopher Team,1300 Galaxy Way STE 17,Concord,California,94520,37.9762388,-122.0501361
CleanPest Solutions,3526 W Sunset Blvd,Los Angeles,California,90026,34.08927,-118.27687
Dewey Pest Control Co,,Santa Cruz,California,95060,36.9740596,-122.0307778
SafeGuard Pest Control,4025 Sequoia St,Los Angeles,California,90039,34.1364952,-118.2703898
Predator Services,Canopy Dr,Melbourne,Florida,32935,28.1460535,-80.641078
Orkin,21750 Red Rum Dr Ste 132,Ashburn,Virginia,20147,39.0159755,-77.4744097
All Green Termite and Pest Control,,,,,33.3136939,-79.9821024
EnviroPest | Syracuse Pest Control,,,,,43.021431,-76.1977014
John Wayne Pest Control,10036 KY-7,West Liberty,Kentucky,41472,38.0241541,-83.2581681
LA Wild LLC,,,,,29.8997971,-90.2901699
Knox Pest Control,1535 Morgan Wy,Statesboro,Georgia,30461,32.4646842,-81.7612048
"Green Island Lawn & Pest, Inc.",6650 45th St,Vero Beach,Florida,32967,27.6759003,-80.4641649
Evergreen Pest Control LLC,95 N Industrial Pk Dr,Pittsfield,Illinois,62363,39.6312848,-90.7869913
Greener Grounds Tick Control,,,,,44.068373,-69.2144786
Bug Busters Pest Control,,,,,39.515061,-90.51153
Hoffman's Exterminating,532 Bridgeton Pike,Mantua Township,New Jersey,8051,39.7800616,-75.1847019
Get Bats Out Fort Collins,,,,,41.085619,-104.893899
Ewert Pest and Wildlife Control,228 S Military Rd,Fond du Lac,Wisconsin,54935,43.7730647,-88.454203
Humboldt Wildlife,,,,,38.5018495,-117.022967
SPM Pest Management,,Pardeeville,Wisconsin,53954,43.5377705,-89.3001842
Elko Pest Control,,,,,40.86888,-115.914897
"Ruby Mountain Pest Control, LLC",559 Spring Valley Ct,Spring Creek,Nevada,89815,40.7877487,-115.6761939
iPest Solutions San Antonio,15706 Uvalde St,Lacoste,Texas,78039,29.3142161,-98.8089089
PestNow,22395 Powers Ct,Sterling,Virginia,20166,38.9967635,-77.4420492
Mosquito Squad of Southeast Minnesota,,,,,44.0871245,-92.1595405
Maine Pest Solutions,17 Doughty Dr Suite 101,Brewer,Maine,4412,44.7872538,-68.7658904
Buddy Childress Pest Control,211 Erwin St,Des Arc,Arkansas,72040,34.9757433,-91.4948494
Magnolia Wildlife Solutions,1070 Hawks Crossing Dr N,Olive Branch,Mississippi,38654,34.8761561,-89.8689493
RAM Pest Control,818 Taugenbaugh Blvd STE 104,Rifle,Colorado,81650,39.5207496,-107.7762978
Defense Pest Control LLC,,,,,39.3967985,-107.4373156
Mosquito Squad of North Central Minnesota,,,,,46.0439309,-94.2968534
Pest Elimination,400 S 27th St,Clarksburg,West Virginia,26301,39.2907083,-80.3594052
Professional Pest Solutions,,,,,38.9201704,-80.182055
Pest Management Services,167 Middletown Cir,Fairmont,West Virginia,26554,39.4262775,-80.1846408
1st Choice Pest Solutions,,,,,45.402839,-91.845563
EnviroGuard Pest Control,,,,,36.4817095,-97.6892905
Scissortail Pest Control,,,,,35.555609,-97.482225
Flatline Pest Control,300 W Cherokee Ave Suit 107,Enid,Oklahoma,73701,36.3947024,-97.8824774
Flatline Pest Control,300 W Cherokee Ave Suit 107,Enid,Oklahoma,73701,36.3947024,-97.8824774
J J & J Custom Spraying,9450 Chestnut Ridge Rd,Middleport,New York,14105,43.15544,-78.499174
Greener Texas Pest and Lawn Services,2540 Shell Rd Suite B,Georgetown,Texas,78628,30.7086694,-97.6893233
Mosquito Shield of Northwest Los Angeles,,,,,34.1857994,-118.7109346
SPRK Pest Solutions,3051 Ps Business Center Dr,Woodbridge,Virginia,22192,38.6523377,-77.3023862
Orkin,1715 W Evans St,Florence,South Carolina,29501,34.1959189,-79.7994303
Eastland Pest Control,,,,,33.926543,-80.2639005
Lowcountry Pest Management and Rodent Control,1250 Fairmont Ave,Mt Pleasant,South Carolina,29464,32.7910487,-79.8677899
Cyclone Pest Management,3300 V18 Rd,Brooklyn,Iowa,52211,41.8172108,-92.4332327
Just Us Pest Control and Handyman Services,,,,,41.9878425,-91.752192
Just Us Pest Control and Handyman Services,,,,,41.9691256,-91.663896
Revolutionary Pest Control LLC,302B 1st St,Fort Payne,Alabama,35967,34.4398556,-85.7211117
Montco Mosquito,,,,,40.2927694,-75.2091504
Green Pest Solutions,426 Elm Ave,North Wales,Pennsylvania,19454,40.2075232,-75.2838065
Morris Pest Control,1036 Main St W,Rainsville,Alabama,35986,34.5040693,-85.8607514
Blue Owl Pest Termite & Handyman,,,,,39.551198,-119.8467205
Guardian Pest Solutions,,,,,47.5096535,-92.501895
"Guardian Pest Solutions, Inc.","1127, 3131 Halvor Ln",Superior,Wisconsin,54880,46.7254258,-92.1252161
5 Star Pest Control,38877 N Bass Lake Rd,Grand Rapids,Minnesota,55744,47.35124,-93.678335
Animal Removal Services of Richmond,,,,,38.003432,-79.420915
Turf Warriors of Ocala LLC,,,,,29.0278164,-82.1025874
Jesse James Critter Gitters,300 E Main St STE D,Remington,Virginia,22734,38.5325497,-77.8063153
Lookout Pest Control,7089 Whites Creek Pike,Joelton,Tennessee,37080,36.3128013,-86.8644332
Willis Family Pest Control,,,,,38.1053065,-77.4572538
Summit Pest Control,5 Le Way Dr STE 101,Fredericksburg,Virginia,22406,38.3534311,-77.5119894
Critter-Free Solutions,22d SE 5th Ave,Gainesville,Florida,32601,29.6472816,-82.3245282
Elliott Weed Control,,,,,36.0458846,-90.5153774
A-1 Pest Control,71 14th Ave SE,Hickory,North Carolina,28602,35.7123091,-81.3365649
APEX Pest Services,,,,,40.486053,-74.4659094
Finley's Lawn and Pest,2402 E Washington St,Fredonia,Kansas,66736,37.5280988,-95.8004099
Lawn Doctor - Loveland,1177 E 2nd St,Loveland,Colorado,80537,40.3938262,-105.0615054
"Precision Wildlife Solutions, LLC",,,,,46.423669,-129.9427086
Above & Beyond Pest Control,531 N Bay St,Eustis,Florida,32726,28.8577868,-81.6854807
Arrow Exterminators,3833 Roswell Rd NW,Atlanta,Georgia,30342,33.8590071,-84.3799721
Tony Jones Termite & Pest,,Greeneville,Tennessee,37745,36.1631883,-82.8310745
Leatherneck Pest Control Services,,,,,45.19697,-91.531284
Structure Pest & Wildlife Innovations,190 Bozarth Ave 100 Unit 1108,Woodland,Washington,98674,45.9022494,-122.7477159
Western Exterminator,165 Vallecitos De Oro,San Marcos,California,92069,33.1418695,-117.1800102
Oak Pest Control,,,,,30.5351769,-91.1118995
Economy Pest Control & Portable Toilets & Lawn Care,2111 Plum Run Rd,Bardstown,Kentucky,40004,37.866038,-85.4298848
Sasquatch Pest Control,,,,,45.4587085,-122.760529
Arizona Heat Pest Services,13832 N 32nd St STE D-145,Phoenix,Arizona,85032,33.612543,-112.0146435
Stryker Pest Control LLC,,,,,39.632107,-81.513406
Medwick Pest Control,,,,,41.0891114,-81.9291615
Eco Strike Pest Control,9786 35788 CA-41,Coarsegold,California,93614,37.2646267,-119.6793793
Mosquito Squad Plus of Pasadena,1919 Vineburn Ave H4,Los Angeles,California,90032,34.0653268,-118.1902936
"The Eliminator Pest Control, Inc.",,,,,44.5341324,-72.0020266
Nuisance No More,3046 Middle Rd,Dunkirk,New York,14048,42.502762,-79.26162
Prudential Pest Solutions,,,,,40.1992004,-75.868343
Local Lawn & Tree Spraying Services,2443 Paintbrush Dr,Twin Falls,Idaho,83301,42.5519586,-114.4346094
Overwatch Pest Management,,,,,33.3258895,-84.85993
Orkin,931 Lower Fayetteville Rd Ste C-D,Newnan,Georgia,30263,33.3745229,-84.7601163
Inner Banks Pest Solutions LLC,,,,,45.2705745,-84.8890104
Waltham Pest Services,400 Bayonet St STE 101,New London,Connecticut,6320,41.3719264,-72.1163057
Titan Pest Solutions,607 Lake Murray Dr Suite 107,Ardmore,Oklahoma,73401,34.163037,-97.1235921
Palmer Pest Management Inc. | Pest Control,,,,,25.5584269,-80.458177
1st Solution Pest Control,18619 SW 107th Ave,Miami,Florida,33157,25.5953387,-80.3635736
Pointe Pest Control,106 E 4th St #3,The Dalles,Oregon,97058,45.6006559,-121.1852355
Vertex Pest Control,543 W 100 S,Paul,Idaho,83347,42.6047062,-113.7725088
Mt Hood Pest Control,,,,,45.5001436,-121.3991689
Orkin,7057 LA-1,Boyce,Louisiana,71409,31.3624705,-92.5936822
Signature Home Lawn and Pest Control,2881 Worth Ave,Englewood,Florida,34224,26.919232,-82.3052857
Ehrlich Pest Control,175 Walnut Ave,Bronx,New York,10454,40.8014812,-73.9099822
Olson's Pest Technicians,,,,,41.9766595,-103.205586
Shooter's Pest Control,2771 N Mendecino Dr A,Prescott Valley,Arizona,86314,34.5831452,-112.3004341
Granite Mountain Pest & Termite Control,,,,,34.168035,-111.9307474
Sexton Pest Control,9350 E Valley Rd,Prescott Valley,Arizona,86314,34.5843957,-112.3019255
DND Pest Control,1648 E New York St,Aurora,Illinois,60505,41.7586645,-88.273331
Verde Environmental & Pest Management,,,,,33.1064204,-117.0851
Terminix,2100 Kickapoo Dr,Danville,Illinois,61832,40.126678,-87.6974
Smithereen Pest Management Services,17 Parker Ave,Danville,Illinois,61833,40.1089653,-87.6373549
144 Outdoor llc,,,,,27.8680499,-82.3727016
Mosquito Squad of Tampa Bay,,,,,27.825079,-82.518608
Termite and Pest Control Apollo Beach,,,,,27.7680034,-82.3691472
Drake Lawn & Pest Control,,,,,29.0956256,-81.111183
ABC Home & Commercial Services,617 FM2353 # 2,Graford,Texas,76449,32.9272971,-98.4273541
Aspen Pest Control Northern AZ,,,,,35.4647565,-111.450786
Moisture Control Experts,,,,,33.80625,-79.9933434
Mountain West Lawn & Pest,,,,,43.639235,-115.9999606
Family First Pest Control,,,,,34.168035,-111.9307474
Budget Pest Control Inc.,1980 N Craycroft Rd,Tucson,Arizona,85712,32.2464731,-110.875151
Champion Pest and Lawn,,,,,46.423669,-129.9427086
Mosquito Authority,,,,,26.253343,-98.3932529
High Desert Pest Solutions,,,,,44.171261,-121.1930075
Orkin,2369 A St,Santa Maria,California,93455,34.9180667,-120.464971
Zen-Cal Termite,,,,,34.1591971,-118.95336
Clark Pest Control,1220 Betteravia Rd,Santa Maria,California,93455,34.9202369,-120.4550229
O’Connor Pest Control Central Coast,101 Cuyama Ln,Nipomo,California,93444,34.9957877,-120.4357181
East End Pest Management Inc.,61 Montauk Hwy,Quogue,New York,11959,40.8232804,-72.6052374
East End Pest Management,61 Montauk Hwy,Quogue,New York,11959,40.8232636,-72.6052096
Hampton Pest Management,22 Old Country Rd,Quogue,New York,11959,40.8356563,-72.6091991
Green Wing Services,2090 S Nova Rd Unit A116,South Daytona,Florida,32119,29.1615104,-81.0244517
PermaTreat Pest & Termite Control,501 Lafayette Blvd,Fredericksburg,Virginia,22401,38.2974632,-77.4600461
East End Pest Control,36 N Ferry Rd,Shelter Island,New York,11964,41.0683622,-72.3383545
Mug-A-Bug Pest Control,,Pueblo,Colorado,81003,38.2897949,-104.6296338
SHOO! Wildlife & Pest Control,2316 N Wahsatch Ave #223,Colorado Springs,Colorado,80907,38.8659618,-104.8172245
QDC Ranch Services LLC.,,,,,38.9979464,-105.550863
"RJM Pest Services, Inc. - Commercial Pest Control in NYC",100 Park Ave RM 1600,New York,New York,10017,40.7513423,-73.9788275
Mole Control LLC,14130 US-27,Hoagland,Indiana,46745,40.9495993,-85.067529
Wilson Pest & Lawn LLC,,,,,36.8094765,-98.7167134
Scherzinger Pest Control,1454 N Broad St,Fairborn,Ohio,45324,39.8372895,-84.0083158
Orkin,5045 Wolff Rd,Dubuque,Iowa,52002,42.5031008,-90.7509416
Elite Termite & Pest Control,"Quincy Township, 714 S 57th St",Quincy,Illinois,62305,39.9225898,-91.325929
Big River Pest Control,106 N 4th St,Hannibal,Missouri,63401,39.7094343,-91.3583105
ALCO Animal & Pest Control,11 Red Maple Ave,Bloomfield,New Jersey,7003,40.8441448,-74.1839732
NiceBats,47888 US-18 Suite B,Canton,South Dakota,57013,43.3015798,-96.6307861
A-pro Pest Control and Lawn Care,1911 70th St Ct E,Bradenton,Florida,34208,27.4816649,-82.4710186
Professional Pest & Lawn Management Inc.,18402 US-41,Spring Hill,Florida,34610,28.4248131,-82.4661622
Suncoast Turf Care & Pest Management,4058 Lamson Ave,Spring Hill,Florida,34608,28.4885328,-82.5446349
Pointe Pest Control,31827 ID-200 Unit F,Sandpoint,Idaho,83864,48.3098818,-116.5227946
Bat Guys,3199 E Main Rd,Portsmouth,Rhode Island,2871,41.614958,-71.24565
Mosquito Shield of South Tampa,,,,,27.7236846,-82.3923565
Orkin,2111 US Hwy 78 E,Anniston,Alabama,36207,33.6152597,-85.7846069
Heritage Pest Management of Wine Country,,,,,38.635977,-122.628609
"Craig & Sons Termite & Pest Control, Inc",32300 Outer Hwy 10 S,Redlands,California,92373,34.0183391,-117.0997905
Pest Control Center Inc.,5761 Pleasant Valley Rd,El Dorado,California,95623,38.6816795,-120.8667837
commonwealth heat solutions,,,,,46.423669,-129.9427086
"Allstate Termite & Pest Control, Inc.",,,,,35.2000691,-98.7167134
Mosquito Authority,,,,,43.336211,-76.3989185
Mosquito Squad of Las Cruces,,,,,32.6320758,-106.424128
"Snyder's Termite & Pest Management, Inc.",2 W Potomac Pkwy Suite 4,Williamsport,Maryland,21795,39.5922451,-77.8216477
Frontline Pest and Termite of Williamsport,10212 Governor Lane Boulevard Suite 1001,Williamsport,Maryland,21795,39.5947976,-77.8064411
Frontline Pest and Termite of Williamsport,10212 Governor Lane Boulevard Suite 1001,Williamsport,Maryland,21795,39.5947976,-77.8064411
Blacks Spray Services Inc,3625 N Courtenay Pkwy,Merritt Island,Florida,32953,28.4231273,-80.7078043
Guardian Pest Solutions,,,,,47.4792995,-94.874504
Mosquito Squad of Southeast PA,,,,,40.1648634,-75.4290955
Novelty Pest Management LLC,,,,,41.516373,-81.3382905
Berner Pest Solutions,,,,,38.051681,-84.4629385
Hinkle Termite & Pest Control,930 S Range Ave,Colby,Kansas,67701,39.38663,-101.0556149
All Seasons Pest Control,"1897 E, 1897 Centre St Suite 300",Rapid City,South Dakota,57703,44.0749696,-103.1811992
World Pest Control / Sunflower Services,228 5th St,Otis,Kansas,67565,38.5365108,-99.0504002
Davis Pest Control,,,,,37.3096154,-101.745609
South Shore Mosquito & Tick Control,80 Evergreen St,Kingston,Massachusetts,2364,41.998125,-70.7307501
Power Solution Landscaping Inc,1360 NW 28th Ave,Miami,Florida,33125,25.7859837,-80.2410024
Truly Nolen Pest & Termite Control,1103 Keller Pkwy Suite 105,Keller,Texas,76248,32.9348184,-97.2259751
Westervelt Wildlife Services,1353 US-80,Demopolis,Alabama,36732,32.5033806,-87.8236764
Terminix,203 1st St,Andrews,North Carolina,28901,35.2029225,-83.823229
Northwest Exterminating - Miami Gardens,17401 NW 2nd Ave #1,Miami Gardens,Florida,33169,25.9344246,-80.2045798
Terminix,130 Rowena Dr,Somerset,Kentucky,42501,37.0412558,-84.6229595
Nature's Way Pest Control - Vermont,,,,,43.7310481,-73.0688499
Pestech Pest Solutions,461 Harris Rd,Ferndale,New York,12734,41.7585499,-74.7367012
Pestech Pest Solutions,11 Raymond Ave Ste. 21,Poughkeepsie,New York,12603,41.6953116,-73.9020217
Ewert Pest and Wildlife Control,5531 Playbird Rd,Sheboygan,Wisconsin,53083,43.8046478,-87.7799761
B.E.S.T. Pest Control Services,,,,,43.7598204,-87.9047274
Plunkett's Pest Control,329 N 2nd St,Mankato,Minnesota,56001,44.1693098,-93.9986183
Guardian Pest Solutions,,,,,44.1842314,-93.97627
Bugs Bee Gone Pest Control LLC,287 N Pennsylvania Ave,Wilkes-Barre,Pennsylvania,18702,41.2479871,-75.8705412
Guardian Pest Control,,,,,41.530472,-87.0195105
Excalibur Pest Control,1860 Northshore Dr,Conroe,Texas,77304,30.3402591,-95.5703653
Kodiak Pest Control,355 Nevada Ave,Lovell,Wyoming,82431,44.8382709,-108.3891307
Banfax Pest Control,17455 Haskins Rd,Bowling Green,Ohio,43402,41.4070571,-83.6840801
A.N.T. Pest Control,1200 S Cedar Rd #2D/E,New Lenox,Illinois,60451,41.4941824,-87.9639209
Orkin,1205 Pin Oak Dr,Flowood,Mississippi,39232,32.3347465,-90.1038407
Green Earth Pest Control,,,,,28.306727,-80.6861594
U-Kill'Em Pest Control Supplies,1612 S Harbor City Blvd,Melbourne,Florida,32901,28.0822187,-80.6054795
Fresh Fields Pest Control & Pet Waste Removal,1120 MacArthur St,Rosenberg,Texas,77471,29.5564712,-95.7995002
On Target Pest Management,,,,,41.1169824,-77.6047047
Precise Termite & Pest Control,10 Park Pl,Butler,New Jersey,7405,41.001938,-74.340691
Orkin,715 Bluecrab Rd,Newport News,Virginia,23606,37.0890203,-76.477678
PESTOUT,764 McGuire Pl,Newport News,Virginia,23601,37.07948,-76.4601166
Mosquito Fighter,3 Alvin Dr,Hampton,Virginia,23664,37.0571649,-76.2910502
Orkin,1020 Imperial Main St,Imperial,Missouri,63052,38.3687667,-90.3778149
Omni Pest Solutions LLC,,,,,38.4473416,-90.4489461
Letson Weed Control,21 Sands Point Dr,Toms River,New Jersey,8755,39.9710635,-74.2279867
Sullivan Pest Control,,,,,43.1283604,-71.793318
Bohannon Services,1416 N Pine St,Florence,Alabama,35630,34.8197487,-87.6830237
Southern Pride Pest Control,1021 Woodward Ave,Muscle Shoals,Alabama,35661,34.7509891,-87.6673237
"Keystone Pest Solutions, LLC",1151 Four Star Dr Suite 1,Mount Joy,Pennsylvania,17552,40.115683,-76.4619572
Massey Services Commercial Pest Control,2776 Michigan Ave,Kissimmee,Florida,34744,28.3292892,-81.3918029
Mosquito Joe of Jackson,218 Industrial Dr,Ridgeland,Mississippi,39157,32.4236855,-90.1411984
Orkin,1903 Princeton Ave,Marion,Illinois,62959,37.7423235,-88.9501772
Mosquito Shield of Annapolis,,,,,39.11909,-76.693731
Professional Pest and Lawn Services LLC,,,,,28.1874266,-81.4962466
Guardian Pest Solutions,,,,,45.5214785,-94.148534
JDC Pest Control,,,,,35.8621564,-86.534777
Orkin,2810 Meridian Pkwy Ste 130,Durham,North Carolina,27713,35.9137183,-78.8997375
Gilbes Pest Control,1546 Upper Hilham Rd,Livingston,Tennessee,38570,36.3959752,-85.3505033
"Feel Good Pest Solutions, LLC",101 S Lafayette St ste 24,Starkville,Mississippi,39759,33.4634336,-88.8149508
Up North Pest Control,,,,,47.3600355,-92.2462604
Pest Pros Las Vegas,7271 Bugler Swan Way,North Las Vegas,Nevada,89084,36.2926972,-115.1890781
Whitman Exterminating Company,601 S Oakwood Ave,Beckley,West Virginia,25801,37.7705869,-81.195978
Blue Sky Pest & Weed Control,201 N Ruth St,Monahans,Texas,79756,31.5890294,-102.9168025
Arrow Exterminators,2001 E Blackstock Rd Ste 100,Roebuck,South Carolina,29376,34.8804993,-81.9668475
Recon Pest Control Inc,79 Escanaba Ave,Staten Island,New York,10308,40.550294,-74.159783
ProShield Pest Solutions,4030 Bruin Blvd Unit J,Longmont,Colorado,80504,40.1317292,-104.9724561
Terminix,520 E Pine Log Rd,Aiken,South Carolina,29803,33.5283171,-81.7067996
Burns Pest Elimination,2002 Forbes Blvd #180,Tucson,Arizona,85745,32.2462373,-110.9906673
Moxie Pest Control,3869 N Oracle Rd Unit B,Tucson,Arizona,85705,32.2767402,-110.979195
Brewer Insect & Animal Spraying,,,,,41.3552721,-70.5690725
Steve's Pest Control,,Boonville,Missouri,65233,38.9619871,-92.7348969
